stop_id,stop_name,stop_lat,stop_lon,stop_code
1,MALL STATION BAY 2,47.907703,-122.213547,6394
10,100TH ST SW & EVERGREEN WAY - WB,47.907379,-122.243103,5215
100,COLBY AVE & 23RD ST - NB,47.987419,-122.208313,1240
101,COLBY AVE & 21ST ST - NB,47.990063,-122.208252,1210
102,COLBY and 19TH,47.992729,-122.208160,1200
103,COLBY AVE & 17TH ST - NB,47.995319,-122.208107,1160
104,COLBY and 15TH,47.997921,-122.208031,1155
105,COLBY AVE & 13TH ST - NB,48.000523,-122.207977,1140
106,COLBY AVE & 10TH ST - NB,48.004486,-122.207878,1093
107,WETMORE AVE & 8TH ST - NB,48.006977,-122.206467,1090
108,WETMORE AVE & 6TH ST - NB,48.010075,-122.206383,1085
109,ALVERSON BLVD & 4TH ST - NB,48.012398,-122.205826,1080
11,100TH and HOLLY,47.907379,-122.247772,5220
110,ALVERSON BLVD & 2ND ST - NB,48.015350,-122.204872,1075
111,W MARINE VIEW DR & BRIDGE WAY - EB,48.014301,-122.194252,1010
112,BROADWAY and 8TH,48.007664,-122.195229,1035
113,N BROADWAY at TOWER ST,48.006229,-122.197060,1328
114,EVERETT STATION - D4,47.974228,-122.197594,2441
115,CEDAR ST & HEWITT  - NB,47.978508,-122.193848,3006
116,EVERETT and CEDAR,47.981907,-122.194191,2275
117,EVERETT AVE & RAINIER AVE - WB,47.981930,-122.197594,2260
118,EVERETT AVE & LOMBARD AVE - WB,47.981979,-122.202644,1310
119,WETMORE AVE & EVERETT AVE - SB,47.981304,-122.207245,1290
12,100TH ST SW & 12TH AVE W - WB,47.907379,-122.250320,5225
120,WETMORE and HEWITT,47.979561,-122.207298,1370
121,WETMORE AVE & WALL ST - SB,47.977318,-122.207230,2355
122,COLBY and PACIFIC,47.976284,-122.208664,1425
123,COLBY and 32ND,47.974907,-122.208595,1490
124,COLBY and 34TH,47.972336,-122.208488,1500
125,COLBY AVE & 36TH ST - SB,47.969719,-122.208374,1510
126,COLBY and 39TH,47.965710,-122.208183,1530
127,COLBY AVE & 41ST ST - SB,47.962830,-122.208038,3000
128,COLBY AVE & 43RD ST SE - SB,47.960575,-122.207939,3265
129,COLBY AVE & 45TH ST SE - SB,47.958530,-122.208000,3275
13,100TH ST SW & 15TH AVE W - WB,47.907433,-122.254463,5230
130,COLBY and 47TH,47.955601,-122.207680,3300
131,COLBY AVE & 50TH ST SE - SB,47.951515,-122.207016,3310
132,COLBY and 52ND,47.949081,-122.206673,4070
133,COLBY and FAIRFAX,47.945900,-122.206749,4085
134,COLBY and 60TH,47.943062,-122.206886,4095
135,BEVERLY BLVD & 63RD ST SE - SB,47.939987,-122.207764,4105
136,BEVERLY BLVD & PALM AVE - SB,47.937820,-122.209534,4115
137,BEVERLY BLVD & MADISON - SB,47.935989,-122.211060,4130
138,BEVERLY and 72ND,47.933014,-122.212624,4155
139,BEVERLY and 75TH,47.929821,-122.212059,4230
14,100TH ST SW & 18TH  AVE W - WB,47.907475,-122.257668,5235
140,CASINO and HIGHLAND,47.927341,-122.212830,4239
141,E  CASINO RD & RAINIER DR - WB,47.925854,-122.215561,4250
142,CASINO and XAVIER,47.925076,-122.217201,4255
143,E CASINO RD & 8TH AVE SE - WB,47.923267,-122.221207,4270
144,100TH and 7TH,47.907360,-122.222672,6190
145,100TH and 100TH,47.907383,-122.218529,6195
146,MALL STATION - BAY 1,47.908085,-122.213638,6395
147,7TH AVE SE & SE EVERETT MALL WAY - NB,47.910160,-122.223236,6085
148,7TH and 93RD,47.913200,-122.223297,6065
149,7TH and 92ND,47.914955,-122.223328,6055
15,100TH and 23RD,47.907562,-122.266144,5240
150,7TH and 90TH,47.916805,-122.223366,6050
151,7TH AVE SE & 87TH ST SE - NB,47.919041,-122.222794,6040
152,7TH AVE SE & 84TH ST SE - NB,47.921528,-122.222855,6005
153,E CASINO RD & 8TH AVE SE - EB,47.923031,-122.221420,4280
154,E CASINO RD & XAVIER WY - EB,47.925068,-122.216927,4260
155,E CASINO RD & RAINIER DR - EB,47.926079,-122.214714,4245
156,E CASINO RD & HIGHLAND DR - NB,47.927647,-122.212585,4240
157,BEVERLY BLVD & 75TH ST SE - NB,47.929947,-122.211914,4235
158,BEVERLY and 72ND,47.932911,-122.212456,4143
159,BEVERLY BLVD & MADISON - NB,47.936768,-122.210182,4120
16,100TH and AIRPORT,47.907578,-122.269051,5245
160,BEVERLY BLVD & PALM AVE - NB,47.938122,-122.209099,4110
161,BEVERLY BLVD & WETMORE AVE - NB,47.940952,-122.206894,4100
162,COLBY AVE & 60TH ST SE - NB,47.943569,-122.206703,4090
163,COLBY AVE & 55TH ST SE - NB,47.947887,-122.206551,4075
164,COLBY AVE & 52ND ST SE - NB,47.949978,-122.206566,3330
165,COLBY AVE & ALTA DR - NB,47.951969,-122.206909,3305
166,COLBY AVE & 47TH ST SE - NB,47.956108,-122.207603,3295
167,COLBY AVE & 43RD ST SE - NB,47.961189,-122.207764,3260
168,COLBY AVE & 41ST ST - NB,47.964035,-122.207886,1543
169,COLBY AVE & 39TH ST - NB,47.966278,-122.207977,1515
17,AIRPORT RD & 94TH ST SW - NB,47.913815,-122.271484,5011
170,COLBY AVE & 36TH ST - NB,47.970165,-122.208138,1505
171,COLBY AVE & 34TH ST - NB,47.972862,-122.208275,1495
172,COLBY AVE & 32ND ST - NB,47.975498,-122.208374,1485
173,EVERETT and OAKES,47.981819,-122.203979,1305
174,EVERETT AVE & BROADWAY - EB,47.981815,-122.200935,2245
175,EVERETT AVE & BAKER AVE - EB,47.981750,-122.196037,2270
176,CEDAR ST at HEWITT AVE - SB,47.978661,-122.193924,2906
177,MUKILTEO FERRY TERMINAL,47.948441,-122.304337,1465
178,SR 525 at 3RD ST - SB,47.946510,-122.304108,1455
179,5TH ST & LINCOLN AVE - EB,47.944794,-122.302849,3240
18,AIRPORT RD & KASCH PARK RD - NB,47.917892,-122.271492,5007
180,5TH ST & LOVELAND AVE - EB,47.945518,-122.298698,3235
181,5TH and PROSPECT,47.946346,-122.294281,3215
182,W MUKILTEO BLVD & LAMAR DR - EB,47.950443,-122.287498,3205
183,W MUKILTEO BLVD & UPLAND AVE - EB,47.952129,-122.282753,3195
184,W MUKILTEO BLVD & SOUND AVE - EB,47.952595,-122.280090,3185
185,MUKILTEO and 33RD,47.953037,-122.277550,3180
186,MUKILTEO and OCEAN,47.953461,-122.275299,3170
187,MUKILTEO and SEAVIEW,47.953575,-122.268005,3155
188,W MUKILTEO BLVD & 23RD AVE W - EB,47.953526,-122.263596,3150
189,W MUKILTEO BLVD & KIRBY PL - EB,47.954952,-122.261108,3140
19,CASINO and AIRPORT,47.920021,-122.269264,5005
190,W MUKILTEO BLVD & HARBOR LN - EB,47.957184,-122.255829,3125
191,MUKILTEO and GREELY,47.956776,-122.251381,3115
192,W MUKILTEO BLVD & GLENWOOD AVE - EB,47.957150,-122.247177,3105
193,W MUKILTEO BLVD & SEAHURST AVE - EB,47.958958,-122.242836,3095
194,MUKILTEO and GLENHAVEN,47.957287,-122.239967,3090
195,W MUKILTEO BLVD & DOGWOOD AVE - EB,47.956650,-122.231018,3075
196,MUKILTEO and FOREST PARK,47.959896,-122.224930,3035
197,MUKILTEO and 42ND,47.962128,-122.219803,3040
198,41ST  and RUCKER,47.963127,-122.212364,3020
199,HEWITT AVE & OAKES AVE - EB,47.979164,-122.203865,426
2,EVERETT MALL and WEST MALL,47.911255,-122.217476,6105
20,W CASINO RD & 23RD AVE W - EB,47.919971,-122.264893,5020
200,EVERETT STATION - D 2,47.974545,-122.197716,2430
201,BROADWAY & PACIFIC AVENUE - NB,47.977150,-122.201393,2887
202,HEWITT AVE at LOMBARD AVE - WB,47.979313,-122.202759,2440
203,HEWITT and ROCKEFELLER,47.979332,-122.205528,1355
204,41ST & COLBY AVE - WB,47.963402,-122.208611,1540
205,41ST ST & RUCKER - WB,47.963329,-122.211319,1545
206,MUKILTEO and 42ND,47.962093,-122.218979,3030
207,E MUKILTEO BLVD & PIGEON CREEK RD - WB,47.959873,-122.225235,3045
208,MUKILTEO and OLYMPIC,47.956841,-122.232124,3070
209,W MUKILTEO BLVD & RIDGEMONT  DR - WB,47.957317,-122.239677,3085
21,W CASINO RD & 84TH ST SW - EB,47.921185,-122.262634,5030
210,W MUKILTEO BLVD & SEAHURST AVE - WB,47.959324,-122.243011,3100
211,W MUKILTEO BLVD & GLENWOOD AVE - WB,47.957138,-122.247406,3110
212,MUKILTEO and DOVER,47.957092,-122.252243,3120
213,W MUKILTEO BLVD & HARBOR LN - WB,47.957375,-122.256531,3130
214,W MUKILTEO BLVD & KIRBY PL - WB,47.954556,-122.261330,3135
215,W MUKILTEO BLVD & 23RD AVE W - WB,47.953636,-122.264122,3145
216,MUKILTEO and SEAVIEW,47.953659,-122.267876,3160
217,W MUKILTEO BLVD & GARDNER AVE - WB,47.953766,-122.274162,3165
218,MUKILTEO and 33RD,47.953148,-122.277458,3175
219,W MUKILTEO BLVD & SOUND AVE - WB,47.952549,-122.280800,3190
22,W CASINO RD & 18TH AVE W - EB,47.921799,-122.257439,5040
220,W MUKILTEO BLVD & UPLAND AVE - WB,47.952145,-122.283127,3200
221,W MUKILTEO BLVD & MUKILTEO LANE - WB,47.950790,-122.287056,3210
222,5TH and PROSPECT,47.946453,-122.294273,3220
223,5TH and LOVELAND,47.945477,-122.299377,3225
224,5TH ST & LINCOLN AVE - WB,47.944805,-122.303261,3245
225,SR 525 & FRONT ST - SB DROPOFF ONLY,47.948792,-122.304459,3250
226,COLLEGE STATION - BAY F - NB,48.005764,-122.200546,1056
227,BROADWAY and 10TH,48.003860,-122.200111,1060
228,RAINIER AVE & 12TH ST - NB,48.001785,-122.198425,2050
229,RAINIER AVE & 11TH ST - NB,48.002762,-122.198410,2045
23,CASINO and SOMERSET,47.921753,-122.252716,5045
230,11TH ST & POPLAR ST - EB,48.003189,-122.196213,2030
231,POPLAR ST & 12TH ST - SB,48.001141,-122.194603,2065
232,15TH ST & FULTON - EB,47.997574,-122.194794,2100
233,15TH ST & MAPLE ST - EB,47.997494,-122.189743,2105
234,WALNUT ST & 24TH ST - SB,47.985771,-122.189522,2230
235,EVERETT AVE & WALNUT ST - WB,47.981846,-122.190086,2285
236,PACIFIC AVENUE & ROCKEFELLER AVE - EB,47.976547,-122.204865,2359
237,LOMBARD AVE & PACIFIC AVE - NB,47.977207,-122.202904,1450
238,SMITH AVE & 35TH ST - SB,47.971481,-122.197060,2342
239,SMITH AVE & 36TH ST - SB,47.969677,-122.197029,2345
24,W CASINO RD & HALL PARK RD - EB,47.921722,-122.250572,5055
240,3RD and 42ND,47.962578,-122.197662,4000
241,3RD and 43RD,47.960789,-122.197449,4010
242,3RD and 45TH,47.957794,-122.197067,4020
243,S 2ND AVE & 49TH ST - SB,47.953625,-122.195351,4030
244,2ND and EUGENE,47.951290,-122.194916,4045
245,S 2ND AVE & MAIN ST - SB,47.948811,-122.194611,4050
246,BROADWAY and 53RD,47.948467,-122.200081,4220
247,BROADWAY & 56TH ST SE - SB,47.945286,-122.199883,4210
248,BROADWAY & 60TH ST SE - SB,47.942986,-122.199745,4200
249,BROADWAY & 62ND ST SE - SB,47.940960,-122.199615,4190
25,CASINO and 10TH,47.921734,-122.247215,5065
250,BROADWAY & MELVIN AVE - SB,47.939022,-122.199524,4180
251,BROADWAY and MADISON,47.935688,-122.199821,4177
252,BROADWAY and MONROE,47.933384,-122.201042,4169
253,BROADWAY and 74TH,47.930912,-122.202408,4161
254,75TH ST SE & MCDOUGALL AVE - EB,47.930050,-122.199753,4159
255,RIDGEWOOD DR & TIMBER HILL DR - SB,47.927994,-122.198441,4151
256,PANAVIEW BLVD & LARLIN DR - SB,47.926163,-122.197319,4157
257,LARLIN and PANAVIEW,47.927521,-122.193184,4154
258,SUNRISE & PANAVIEW - NB,47.928230,-122.194763,4156
259,75TH and MCDOUGALL,47.930107,-122.199600,4158
26,CASINO and 8TH,47.921757,-122.243141,5075
260,BROADWAY and 79TH,47.925671,-122.205231,4232
261,BEVERLY and BROADWAY,47.922401,-122.207245,4248
262,EASTMONT PARK & RIDE BAY 3 - WB,47.915356,-122.205177,2502
263,19TH AVE SE & BURLEY DRIVE - SB,47.912971,-122.207176,6125
264,19TH AVE SE & 96TH PL SE - SB,47.911076,-122.207207,6130
265,19TH AVE SE & 98TH ST SE - SB,47.909157,-122.207222,6135
266,19TH and 101ST,47.905743,-122.207153,6377
267,19TH AVE SE & 102ND ST SE - SB,47.904549,-122.207115,6140
268,19TH AVE SE & 106TH PL SE - SB,47.900162,-122.207016,6145
269,19TH and 110TH,47.898426,-122.206932,6150
27,W CASINO RD & 5TH AVE W - EB,47.921753,-122.241058,5087
270,19TH and 113TH,47.895611,-122.204926,6402
271,19TH and 116TH,47.892578,-122.204277,6247
272,121ST and 19TH,47.887730,-122.207458,6430
273,121ST ST SE & SILVER LAKE DR  - WB,47.887783,-122.210930,6355
274,121ST ST SE at SILVER LAKE RD - WB,47.888222,-122.213509,6350
275,SILVER LAKE and 116TH,47.892262,-122.216072,6200
276,SILVER LAKE ROAD & SILVER LAKE BEACH - NB,47.894566,-122.214729,6343
277,South Everett Freeway Station - Bay 1,47.899570,-122.214195,6331
278,112TH ST SE & I5 - WB,47.896580,-122.216919,6163
279,112TH ST SE & 10TH AVE SE - WB,47.896530,-122.218880,6165
28,W CASINO RD & UPPER RIDGE RD - EB,47.921810,-122.238983,5090
280,7TH and 112TH,47.897129,-122.222969,6170
281,7TH and 109TH,47.899601,-122.223007,6175
282,7TH AVE SE & 105TH ST SE - NB,47.901783,-122.223053,6180
283,7TH AVE SE & BRUSKRUD RD - NB,47.905914,-122.223167,6185
284,100TH and 100TH,47.907482,-122.218002,6310
285,100TH and 7TH,47.907463,-122.222733,6305
286,7TH and 103RD,47.904438,-122.223305,6315
287,7TH and 105TH,47.902546,-122.223251,6320
288,7TH and 110TH,47.898098,-122.223152,6325
289,112TH ST SE & 9TH AVE SE - EB,47.896400,-122.219223,6330
29,CASINO and 2ND,47.921776,-122.236473,5100
290,South Everett Freeway Station - Bay 4,47.899593,-122.214027,6332
291,112TH ST SE & SILVER LAKE ROAD - EB,47.896599,-122.212936,6335
292,112TH ST SE & 16TH AVE SE - EB,47.896893,-122.209831,6337
293,19TH AVE SE & 110TH ST SE - NB,47.898727,-122.206718,6365
294,19TH and 105TH,47.903145,-122.206863,6370
295,19TH AVE SE & 102ND ST SE - NB,47.904766,-122.206894,6375
296,19TH AVE SE & 100TH ST SE - NB,47.907581,-122.206917,6380
297,19TH AVE SE & 96TH PL SE - NB,47.910931,-122.206978,6388
298,19TH AVE SE & BURLEY DRIVE - NB,47.912975,-122.206932,6390
299,BROADWAY & BEVERLY BLVD - NB,47.922585,-122.206726,4249
3,EVERETT MALL and 10TH,47.910355,-122.220833,6095
30,E CASINO RD & EVERGREEN WAY - EB,47.921848,-122.230515,5115
300,BROADWAY & 79TH ST SE - NB,47.927502,-122.204170,4231
301,BROADWAY & 75TH ST SE - NB,47.930458,-122.202538,4162
302,BROADWAY & 73RD ST SE - NB,47.932434,-122.201485,4164
303,BROADWAY & ADAMS AVE - NB,47.934517,-122.200340,4168
304,BROADWAY & HOWARD AVE - NB,47.937775,-122.199249,4185
305,BROADWAY & 62ND ST SE - NB,47.941437,-122.199532,4195
306,BROADWAY & 60TH ST SE - NB,47.943699,-122.199669,4205
307,BROADWAY & 56TH ST SE - SB,47.945938,-122.199821,4215
308,BROADWAY & 52ND ST SE - NB,47.949055,-122.200012,4223
309,LOWELL ROAD & S 3RD AVE - EB,47.947681,-122.196083,4065
31,CASINO and EVERGREEN,47.921860,-122.226685,5132
310,S 2ND AVE & ZILLAH ST - NB,47.948273,-122.194435,4060
311,S 2ND AVE & EUGENE ST - NB,47.951656,-122.194839,4040
312,S 2ND AVE & 49TH ST - NB,47.953613,-122.195244,4035
313,S 3RD AVE & 46TH ST - NB,47.956970,-122.196854,4025
314,S 3RD AVE & 44TH ST - NB,47.959919,-122.197212,4015
315,S 3RD AVE & 42ND ST - NB,47.962910,-122.197403,4005
316,SMITH AVE & 36TH ST - NB,47.970924,-122.196899,2343
317,EVERETT STATION - E1,47.974640,-122.197952,2445
318,EVERETT AVE & CEDAR - EB,47.981735,-122.192856,2280
319,WALNUT ST & 26TH ST - NB,47.983223,-122.189430,2235
32,7TH and 84TH,47.921455,-122.223000,6000
320,WALNUT ST & 24TH ST - NB,47.985867,-122.189377,2225
321,WALNUT ST & 22ND ST - NB,47.988228,-122.189308,2160
322,WALNUT ST & 19TH ST - NB,47.992592,-122.189209,2145
323,WALNUT ST & 17TH ST - NB,47.995056,-122.189148,2125
324,15TH ST & WALNUT ST - WB,47.997555,-122.189758,2110
325,15TH and BAKER,47.997662,-122.194756,2095
326,POPLAR ST & 14TH ST - NB,47.998341,-122.194862,2090
327,POPLAR ST & 12TH ST - NB,48.001625,-122.194519,2060
328,11TH and POPLAR,48.003281,-122.196022,2035
329,11th St & RAINIER AVE - WB,48.003281,-122.198112,2040
33,7TH and 87TH,47.918819,-122.222954,6035
330,RAINIER AVE & 12TH ST - SB,48.001686,-122.198563,2055
331,SILVER LAKE and SILVER LAKE BEACH,47.894531,-122.214882,6340
332,SILVER LAKE and 116TH,47.892216,-122.216179,6345
333,SILVER LAKE ROAD & 119TH PL SE - SB,47.889725,-122.215996,6205
334,SILVER LAKE ROAD & 13TH DR SE - EB,47.888103,-122.213402,6210
335,121ST ST SE & 17TH AVE SE - EB,47.887596,-122.209610,6215
336,121ST ST SE & 19TH AVE SE - EB,47.887646,-122.207428,6220
337,19TH AVE SE & 121ST ST SE - NB,47.888027,-122.206520,6425
338,19TH AVE SE & LAKE HEIGHTS DRIVE - NB,47.891258,-122.205536,6420
339,19TH AVE SE & 116TH ST SE - NB,47.893108,-122.203171,6410
34,7TH and 90TH,47.916317,-122.223541,6045
340,19TH and 113TH,47.895763,-122.204758,6405
341,112TH ST SE & 19TH AVE SE - WB,47.897110,-122.209023,6155
342,112TH and 16TH,47.896873,-122.211273,6160
343,DOGWOOD DR & W MUKILTEO BLVD - SB,47.956387,-122.231667,3080
344,DOGWOOD DR & 48TH ST SW - SB,47.954655,-122.231361,3340
345,DOGWOOD and ALDER,47.952290,-122.230972,3345
346,BEVERLY LANE & SUNSET LANE - SB,47.947979,-122.228973,3365
347,BEVERLY LANE & HIGHLAND RD - SB,47.945103,-122.228661,3375
348,BEVERLY and PECKS,47.941090,-122.228622,3500
349,BEVERLY and BEECH,47.938454,-122.228508,3545
35,7TH and 92ND,47.914772,-122.223488,6060
350,BEVERLY and MADISON,47.936962,-122.228485,3550
351,BEVERLY and SOUTH CABOT,47.934513,-122.228447,3565
352,BEVERLY LANE & 72ND ST SE - SB,47.932751,-122.228439,3567
353,BEVERLY LANE & 75TH ST SE - SB,47.929867,-122.228409,3580
354,BEVERLY and 77TH,47.927353,-122.228378,3585
355,79TH PL SE & BEVERLY LN - EB,47.925934,-122.227020,3595
356,EVERGREEN WAY at 79TH PL SE - SB,47.925571,-122.224854,1367
357,E CASINO RD & EVERGREEN WAY - WB,47.922012,-122.228851,5120
358,CASINO and MERIDIAN,47.922009,-122.233253,5110
359,W CASINO RD & 2ND AVE W - WB,47.921951,-122.236099,5105
36,7TH and 94TH,47.912720,-122.223442,6070
360,CASINO and UPPER RIDGE,47.921967,-122.237831,5095
361,W CASINO RD & 5TH AVE W - WB,47.921921,-122.241608,5085
362,CASINO and 8TH,47.921906,-122.243462,5080
363,CASINO and 10TH,47.921867,-122.246834,5070
364,CASINO and HALL PARK,47.921867,-122.250206,5060
365,CASINO and SOMERSET,47.921883,-122.253006,5050
366,W CASINO RD & 18TH AVE W - WB,47.921936,-122.258553,5035
367,CASINO and 84TH,47.921093,-122.262970,5025
368,W CASINO RD & 23RD AVE W - WB,47.920109,-122.265091,5015
369,W CASINO RD & AIRPORT RD - WB,47.920166,-122.270279,5000
37,7TH and EVERETT MALL,47.910603,-122.223427,6075
370,79TH and EVERGREEN,47.926029,-122.226898,3600
371,BEVERLY LANE & 78TH ST SE - NB,47.927101,-122.228256,3590
372,BEVERLY LANE & 75TH ST SE - NB,47.930351,-122.228271,3575
373,BEVERLY LANE & 72ND ST SE - NB,47.932510,-122.228294,3570
374,BEVERLY LN & MADISON - NB,47.935951,-122.228325,3555
375,BEVERLY LANE & TAMARACK DR - NB,47.938156,-122.228371,3548
376,BEVERLY LANE & PECKS - NB,47.941196,-122.228500,3505
377,BEVERLY LANE & 58TH ST SE - NB,47.945568,-122.228546,3370
378,BEVERLY LANE & SUNSET LANE - NB,47.948006,-122.228844,3360
379,DOGWOOD DR & 50TH ST SW - NB,47.952065,-122.230858,3350
38,SE EVERETT MALL WAY & 7TH AVE SE - EB,47.909824,-122.221939,6090
380,DOGWOOD DR & 48TH ST SW - NB,47.954670,-122.231224,3335
381,AIRPORT RD & KASCH PARK RD - SB,47.917839,-122.271828,2913
382,AIRPORT RD at 94TH ST SW - SB,47.913704,-122.271858,2668
383,94TH ST SW at AIRPORT RD - WB,47.913391,-122.272820,1741
384,BOEING GATE E-67,47.914253,-122.276619,1748
385,BOEING GATE E-68,47.916653,-122.276100,2977
386,BOEING GATE E-84,47.932602,-122.277664,2328
387,BOEING GATE E-88,47.931343,-122.266037,2330
388,PERIMETER RD & SEAWAY BLVD - EB,47.932545,-122.261063,2905
389,PACIFIC AVE & CEDAR ST - EB,47.976696,-122.193466,2335
39,SE EVERETT MALL WAY & 11TH AVE SE - EB,47.910736,-122.218552,6100
390,MAPLE ST & HEWITT AVE - NB,47.979362,-122.190887,2310
391,EVERETT AVE & WALNUT ST - EB,47.981693,-122.190094,2290
392,EVERETT AVE & HIGHLAND AVE - EB,47.981644,-122.185616,2295
393,HARRISON AVE & 26TH ST - NB,47.982048,-122.182434,2215
394,HARRISON and 24TH,47.985710,-122.182358,2205
395,23RD and SUMMIT,47.986992,-122.184113,2190
396,23RD and STATE,47.987022,-122.186394,2185
397,WALNUT ST & 15TH ST - NB,47.997738,-122.189072,2120
398,E MARINE VIEW DRIVE & 13TH ST - NB,48.000057,-122.189034,2075
399,E MARINE VIEW DRIVE & 10TH ST - NB,48.004032,-122.188934,2025
4,SE EVERETT MALL WAY & 7TH AVE SE - WB,47.909477,-122.224091,6080
40,100TH ST & WEST MALL DR - EB - DROP OFF ONLY,47.907787,-122.216728,6397
400,E MARINE VIEW DRIVE & BUTLER ST - NB,48.007408,-122.188812,2005
401,E MARINE VIEW DRIVE & BELMONTE LN - NB,48.009525,-122.189209,2001
402,COLLEGE STATION- BAY D,48.005325,-122.200485,1054
403,MARINE VIEW and SKYLINE,48.014137,-122.193657,1011
404,ALVERSON BLVD & 2ND ST - SB,48.015560,-122.204987,1076
405,WETMORE AVE & ALVERSON BLVD  - SB,48.011650,-122.206467,1082
406,WETMORE and 6TH,48.009262,-122.206535,1084
407,WETMORE and 8TH,48.006676,-122.206612,1092
408,COLBY and 10TH,48.004070,-122.208115,1113
409,COLBY and 13TH,48.000465,-122.208229,1145
41,BOEING GATE E-72,47.925564,-122.280731,2327
410,COLBY and 15TH,47.997917,-122.208290,1150
411,COLBY and 17TH,47.994862,-122.208397,1165
412,COLBY and 19TH,47.992237,-122.208435,1205
413,COLBY AVE & 21ST ST - SB,47.989655,-122.208496,1215
414,COLBY and 23RD,47.986946,-122.208565,1245
415,COLBY and 25TH,47.984959,-122.208603,1255
416,COLBY AVE & 26TH ST - SB,47.982616,-122.208611,1275
417,PACIFIC and HOYT,47.976604,-122.209503,1415
418,PACIFIC AVE & RUCKER AVE - WB,47.976566,-122.212143,1411
419,PACIFIC AVE & NASSAU ST - WB,47.976490,-122.216141,1390
42,3RD AVE SE & SE EVERETT MALL WAY - SB,47.907265,-122.228302,6268
420,WALL ST & GRAND AVE - EB,47.977741,-122.213089,1378
421,WALL ST & COLBY AVE - EB,47.977848,-122.209190,1388
422,BROADWAY at WALL ST - SB,47.977619,-122.201675,2886
423,33RD and MCDOUGALL,47.973988,-122.200195,2324
424,EVERETT STATION- I1,47.973289,-122.197113,2450
425,EVERETT STATION - I2,47.972824,-122.196930,2451
426,HEWITT AVE & WETMORE - WB,47.979370,-122.207748,1375
427,HEWITT and HOYT,47.979393,-122.209755,1380
428,HEWITT AVE & GRAND AVE - WB,47.979416,-122.213257,1358
429,W MARINE VIEW DR & CALIFORNIA ST - NB,47.981014,-122.214203,1268
43,3RD and 102ND,47.904507,-122.228233,6272
430,MARINE VIEW and 26TH,47.983116,-122.214149,1260
431,W MARINE VIEW DR & 18TH ST - NB,47.993382,-122.213692,1225
432,13TH atW MARINE VIEW DR,48.000328,-122.214844,1120
433,W MARINE VIEW DR & 14TH ST - SB,47.999268,-122.214005,1123
434,W MARINE VIEW DR & 16TH ST - SB,47.996693,-122.213898,1125
435,W MARINE VIEW DR & 19TH ST - SB,47.991840,-122.213989,1230
436,MARINE VIEW and 26TH,47.983421,-122.214363,1265
437,MARINE VIEW and CALIFORNIA,47.980518,-122.214447,1263
438,HEWITT AVE & GRAND AVE - EB,47.979282,-122.212646,1357
439,HEWITT AVE & HOYT AVE - EB,47.979237,-122.210258,1385
44,3RD and 109TH,47.898369,-122.228111,6278
440,HEWITT AVE & WETMORE - EB,47.979179,-122.206642,1365
441,EVERGREEN WAY & 100TH ST SW - NB,47.906986,-122.241806,6270
442,EVERGREEN WAY & 4TH AVE W - NB,47.909409,-122.239571,6277
443,EVERGREEN WAY & W MARILYN AVE - NB,47.911091,-122.237991,5180
444,EVERGREEN WAY & W INTERCITY AVE - NB,47.912395,-122.236771,5170
445,EVERGREEN and 92ND,47.914165,-122.235107,5155
446,EVERGREEN WAY & HOLLY DR - NB,47.916698,-122.232758,5145
447,EVERGREEN WAY & 86TH - NB,47.919621,-122.230019,5135
448,EVERGREEN and CASINO,47.921398,-122.228302,5130
449,EVERGREEN WAY & 79TH PL SE - NB,47.926216,-122.223877,877
45,112TH ST SE & 2ND AVE SE - WB,47.896584,-122.229637,6296
450,EVERGREEN WAY & BRUIN BLVD - NB,47.928135,-122.222076,3605
451,EVERGREEN WAY & 75TH ST SE - NB,47.930405,-122.220497,3168
452,EVERGREEN WAY & 71ST - NB,47.933464,-122.219597,3622
453,EVERGREEN and MADISON,47.936691,-122.218719,3628
454,EVERGREEN WAY & BERKSHIRE DR - NB,47.940853,-122.217606,3638
455,EVERGREEN WAY & 57TH ST SE - NB,47.945679,-122.215988,3642
456,EVERGREEN WAY & HIGHWAY PL - NB,47.947468,-122.215187,3647
457,EVERGREEN WAY & 52ND ST SE - NB,47.949734,-122.214211,3325
458,EVERGREEN WAY & 50TH ST SE - NB,47.952854,-122.213310,3315
459,EVERGREEN WAY & WILMINGTON AVE - NB,47.954659,-122.212990,3290
46,112TH and MERIDIAN,47.896591,-122.233627,6292
460,RUCKER AVE & 43RD ST SE - NB,47.961071,-122.210564,3255
461,RUCKER AVE & 39TH ST - NB,47.965649,-122.210785,1537
462,RUCKER AVE & 37TH ST - NB,47.968422,-122.210907,1520
463,RUCKER AVE & 35TH ST - NB,47.971558,-122.211044,1475
464,RUCKER AVE & 33RD ST - NB,47.974110,-122.211159,1466
465,RUCKER AVE & 32ND ST - NB,47.975426,-122.211220,1460
466,BROADWAY & 26TH ST - NB,47.983028,-122.201370,2240
467,BROADWAY & 23RD ST - NB,47.987354,-122.201263,2175
468,BROADWAY & 21ST ST - NB,47.990322,-122.201172,2170
469,BROADWAY & 19TH ST - NB,47.992718,-122.201118,2140
47,112TH ST SE & 4TH AVE W - WB,47.896572,-122.239685,5281
470,BROADWAY & 18TH ST - NB,47.994080,-122.201088,2135
471,BROADWAY & 15TH ST - NB,47.997894,-122.200981,2085
472,BROADWAY & 13TH ST - NB,48.000526,-122.200912,827
473,COLLEGE STATION - BAY B - SB,48.005501,-122.200294,1052
474,BROADWAY & 12TH ST - SB,48.001865,-122.201149,1170
475,BROADWAY at 14TH ST - SB,47.998665,-122.201241,1318
476,BROADWAY and 16TH,47.996082,-122.201294,1180
477,BROADWAY and 18TH,47.993454,-122.201363,1185
478,BROADWAY and 19TH,47.992111,-122.201385,1190
479,BROADWAY & 21ST ST - SB,47.989567,-122.201469,1195
48,112TH and 8TH,47.896545,-122.245110,5283
480,BROADWAY and 23RD,47.986774,-122.201530,1235
481,BROADWAY and 25TH,47.984127,-122.201599,1315
482,RUCKER and PACIFIC,47.976086,-122.211510,1410
483,RUCKER AVE at 33RD ST - SB,47.973579,-122.211395,1477
484,RUCKER AVE & 35TH ST - SB,47.970894,-122.211281,1480
485,RUCKER and 37TH,47.968689,-122.211182,1525
486,RUCKER and 39TH,47.965786,-122.211044,1535
487,RUCKER and 41ST,47.962395,-122.210938,3010
488,EVERGREEN and 44TH,47.959042,-122.211395,3270
489,EVERGREEN and 47TH,47.955006,-122.213272,3285
49,112TH and EVERGREEN,47.896523,-122.250496,5206
490,EVERGREEN and 50TH,47.951431,-122.213928,3320
491,EVERGREEN and 52nd,47.949139,-122.214790,3650
492,EVERGREEN and 57TH,47.945747,-122.216324,3645
493,EVERGREEN WAY & 59TH ST SE - SB,47.944180,-122.217026,3640
494,EVERGREEN WAY & PECKS DR - SB,47.940998,-122.217888,3635
495,EVERGREEN and 65TH,47.938950,-122.218468,3630
496,EVERGREEN WAY & MADISON ST - SB,47.934795,-122.219566,3625
497,EVERGREEN WAY & 73RD - SB,47.931755,-122.220398,3620
498,EVERGREEN WAY & 75TH ST SE - SB,47.929874,-122.221085,3615
499,EVERGREEN and BRUIN,47.927605,-122.222954,3610
5,SE EVERETT MALL WAY & 3RD AVE SE - WB,47.908173,-122.229050,6230
50,112TH and 16TH,47.896523,-122.255211,5212
500,EVERGREEN WAY & E CASINO RD - SB,47.920998,-122.229095,5125
501,EVERGREEN and 86TH,47.918808,-122.231155,5136
502,EVERGREEN WAY & HOLLY DR - SB,47.917252,-122.232597,5150
503,EVERGREEN WAY & 92ND ST SW - SB,47.913776,-122.235863,5160
504,EVERGREEN WAY & W INTERCITY AVE - SB,47.912216,-122.237320,5175
505,EVERGREEN and 4TH,47.909752,-122.239639,5185
506,EVERGREEN WAY & 100TH ST SW - SB,47.906776,-122.242386,5190
507,SW EVERETT MALL WAY & 4TH AVE W - EB,47.905766,-122.237236,6245
508,SE EVERETT MALL WAY & MERIDIAN AVE - EB,47.906902,-122.232994,6238
509,AIRPORT RD & W CASINO RD - SB,47.920246,-122.271919,2484
51,112TH and PAINE FIELD,47.896523,-122.258713,5216
510,84TH and 44TH,47.922153,-122.293472,7375
511,SR 525 at 84TH ST SW - NB,47.922871,-122.300064,964
512,SR 525 at 80TH ST SW - NB,47.926064,-122.300179,963
513,SR 525 & 76TH ST SW - NB,47.929092,-122.301147,973
514,SR 525 at CLOVER LANE - NB,47.933525,-122.306290,967
515,SR 525 & 15TH PL - NB,47.937569,-122.305992,972
516,SR 525 & GOAT TRAIL RD - NB,47.940029,-122.305717,968
517,SR 525 at GOAT TRAIL RD - SB,47.940247,-122.305824,1472
518,SR 525 & CLOVER LN - SB,47.933353,-122.306381,1470
519,SR 525 & 76TH ST SW - SB,47.929367,-122.301849,1468
52,AIRPORT RD & 112TH ST SW - SB,47.896099,-122.263481,5265
520,SR 525 at 80TH ST SW - SB,47.926003,-122.300377,1469
521,SR 525 at 81ST PL SW - SB,47.924004,-122.300308,1456
522,84TH and 44TH,47.922016,-122.292786,7380
523,BROADWAY & 34TH ST - SB,47.972881,-122.201485,2367
524,BROADWAY and 36TH,47.970406,-122.201363,1553
525,BROADWAY at 38TH ST - SB,47.967155,-122.201233,2366
526,BROADWAY & 45TH ST SE - SB,47.956734,-122.200623,4008
527,MADISON ST & JEFFERSON AVE - WB,47.936321,-122.203720,4175
528,MADISON and COMMERCIAL,47.936317,-122.205376,4165
529,MADISON and BEVERELY,47.936337,-122.209892,4135
53,"AIRPORT RD at EVERGREEN WAY <EB,FS>",47.888687,-122.257973,1301
530,MADISON and HIGHLAND,47.936295,-122.213493,4140
531,MADISON ST & BERKSHIRE DR - WB,47.936268,-122.217430,4148
532,MADISON and CADY,47.936401,-122.222633,3536
533,MADISON ST & BEVERLY LANE - WB,47.936474,-122.225853,3538
534,BROOKRIDGE and 1ST  PLACE,47.942631,-122.230827,3490
535,BROOKRIDGE and 1ST,47.945110,-122.233078,3380
536,BROOKRIDGE BLVD & 1ST DR W - WB,47.944592,-122.235641,3390
537,BROOKRIDGE BLVD & 4TH DR W - WB,47.944523,-122.239235,3400
538,MERRILL CREEK PARKWAY & GLENWOOD - WB,47.944183,-122.243668,3415
539,MERRILL CREEK PARKWAY & 13TH AVE W - WB,47.943523,-122.251816,3425
54,AIRPORT RD & ADMIRALTY WAY - EB,47.883923,-122.253929,1299
540,HARDESON and MERRILL CREEK,47.942211,-122.255882,3440
541,HARDESON ROAD & 64TH ST SW - SB,47.939804,-122.254387,3660
542,HARDESON and 70TH,47.936867,-122.252457,3665
543,HARDESON and 71ST,47.934769,-122.251083,3668
544,HARDESON and 72ND,47.933750,-122.250427,3670
545,HARDESON ROAD & 75TH ST SW - SB,47.929981,-122.247902,3675
546,HARDESON RD & 77TH - SB,47.927887,-122.243233,3710
547,HARDESON RD & 80TH ST SW - SB,47.925140,-122.240776,3715
548,EVERGREEN and OLIVIA PARK,47.903507,-122.245445,5195
549,EVERGREEN and  108TH,47.900677,-122.248108,5200
55,AIRPORT RD & E GIBSON RD - EB,47.881786,-122.249702,168
550,EVERGREEN and 110TH,47.898159,-122.250504,5205
551,EVERGREEN and 112TH,47.895325,-122.253098,5210
552,EVERGREEN and 116TH,47.892780,-122.255669,5310
553,AIRPORT and EVERGREEN,47.890163,-122.258759,5288
554,112TH ST SW & AIRPORT RD - EB,47.896416,-122.262329,5217
555,112TH ST SW & 17TH CT SW - EB,47.896370,-122.255844,5213
556,EVERGREEN CENTER & 112TH ST SW - NB,47.894665,-122.256813,5300
557,EVERGREEN WAY & 112TH ST SW - NB,47.897388,-122.250786,6295
558,HARDESON RD & UPPER RIDGE RD - NB,47.924438,-122.240356,3720
559,HARDESON RD & 77TH - NB,47.928051,-122.243332,3705
56,128TH ST SW & 8TH AVE W - EB,47.881817,-122.243660,167
560,HARDESON RD & VERALENE WAY - NB,47.929424,-122.246780,3484
561,HARDESON ROAD & 75TH ST SW - NB,47.931515,-122.249123,3673
562,HARDESON and 71ST,47.934662,-122.250839,3667
563,HARDESON RD & SHUKSAN WAY - NB,47.935925,-122.251671,3479
564,HARDESON ROAD & 65TH ST SW - NB,47.938992,-122.253693,3664
565,HARDESON ROAD & MERRILL CREEK PARKWAY - NB,47.941799,-122.255470,3663
566,MERRILL CREEK PARKWAY & HARDESON RD - WB,47.942623,-122.256630,3442
567,MERRILL CREEK PKWAY & 20TH AVE W - WB,47.941414,-122.259666,3443
568,MERRILL CREEK PARKWAY & 23RD AVE W - WB,47.941120,-122.264244,3447
569,MERRILL CREEK and 64TH,47.941044,-122.266434,3446
57,MARINER PARK AND RIDE - Bay 4,47.879951,-122.238518,2106
570,MERRILL CREEK and SEAWAY,47.938816,-122.267845,3457
571,SEAWAY BLVD & MERRILL CREEK PKWY - SB,47.936970,-122.264427,3483
572,SEAWAY BLVD & FLUKE DR - SB,47.934326,-122.261436,3486
573,75TH ST SW & SEAWAY BLVD - EB,47.930801,-122.260010,3473
574,75TH ST SW & 16TH AVE W - EB,47.929573,-122.254890,3677
575,MERRILL CREEK PARKWAY & HARDESON ROAD - EB,47.942772,-122.255516,3430
576,MERRILL CREEK PARKWAY & 13TH AVE W - EB,47.943493,-122.250542,3420
577,MERRILL CREEK PARKWAY & GLENWOOD - EB,47.943913,-122.244034,3410
578,BROOKRIDGE BLVD & SEAHURST AVE - EB,47.944443,-122.240379,3405
579,BROOKRIDGE BLVD & 3RD DR W - EB,47.944069,-122.237823,3395
58,4TH and 124TH,47.886097,-122.238693,6288
580,BROOKRIDGE BLVD & 60TH PL SE - EB,47.944592,-122.235428,3385
581,BROOKRIDGE and 59TH,47.944462,-122.231522,3383
582,BROOKRIDGE BLVD & 1ST DR SE - EB,47.941925,-122.229568,3495
583,MADISON and MORGAN,47.936317,-122.224342,3537
584,MADISON ST & RAINIER DR - EB,47.936111,-122.217949,4150
585,MADISON ST & OLYMPIC DR - EB,47.936176,-122.214363,4145
586,MADISON ST & BEVERLY BLVD - EB,47.936214,-122.210075,4125
587,MADISON ST & COMMERCIAL AVE - EB,47.936211,-122.205971,4160
588,MADISON ST & JEFFERSON AVE - EB,47.936199,-122.203300,4170
589,BROADWAY & 45TH ST SE - NB,47.956657,-122.200508,4007
59,4TH AVE W & 120TH ST SW - NB,47.889709,-122.238716,6284
590,BROADWAY & 38TH ST - NB,47.967754,-122.200974,2364
591,BROADWAY & 36TH ST - NB,47.970451,-122.201111,1552
592,BROADWAY & 34th ST - NB,47.972576,-122.201202,2365
593,75TH ST SW & 16TH AVE W - WB,47.929714,-122.255386,3676
594,75TH ST SW & SEAWAY BLVD - WB,47.930992,-122.260078,3680
595,SEAWAY and FLUKE,47.935009,-122.261711,3485
596,SEAWAY BLVD & 24TH AVE W - WB,47.937157,-122.265282,3480
597,MERRILL CREEK and SEAWAY,47.937729,-122.267685,3475
598,MERRILL CREEK PARKWAY & 64TH ST - EB,47.939468,-122.267662,3455
599,MERRILL CREEK PARKWAY & 23RD DR W - EB,47.940987,-122.263748,3450
6,SE EVERETT MALL WAY & 1ST DRIVE - WB,47.907383,-122.232086,6235
60,4TH and 116TH,47.891907,-122.238731,6282
600,MERRILL CREEK PARKWAY & 20TH AVE W - EB,47.941086,-122.260590,3445
61,112TH ST SW & 4TH AVE W - EB,47.896408,-122.237808,6291
62,112TH ST SE & 1ST AVE SE - EB,47.896404,-122.233002,6293
63,3RD AVE SE & 112TH ST SW - NB,47.897064,-122.228004,6279
64,3RD AVE SE & 106TH ST SE - NB,47.901787,-122.228035,6275
65,3RD and 102ND,47.904522,-122.228111,6273
66,EVERETT MALL and 3RD,47.908295,-122.227669,6225
67,COLLEGE STATION - BAY C,48.005245,-122.200294,1053
68,N BROADWAY & 7TH ST - NB,48.008369,-122.193901,2010
69,E MARINE VIEW DRIVE & BELMONTE LN - SB,48.009403,-122.189331,2000
7,SW EVERETT MALL WAY & 1ST PL W - WB,47.906582,-122.235001,6240
70,E MARINE VIEW DRIVE & HAWTHORNE ST - SB,48.005856,-122.189018,2015
71,E MARINE VIEW DR & 10TH ST  - SB,48.004234,-122.189056,2017
72,E MARINE VIEW DRIVE & 12TH ST - SB,48.001354,-122.189133,2070
73,WALNUT and 15TH,47.997681,-122.189201,2115
74,WALNUT  and 17TH,47.994690,-122.189278,2130
75,WALNUT   and 19TH,47.991959,-122.189354,2150
76,WALNUT   and LEONARD,47.990280,-122.189392,2155
77,WALNUT   and 22ND,47.987923,-122.189461,2165
78,23RD ST & STATE ST- EB,47.986927,-122.186836,2180
79,23RD ST & SUMMIT AVE - EB,47.986904,-122.183952,2195
8,SW EVERETT MALL WAY & 4TH AVE W - WB,47.905804,-122.237938,6244
80,HARRISON and 25TH,47.984386,-122.182503,2210
81,HARRISON and EVERETT,47.981895,-122.182556,2305
82,EVERETT and SUMMIT,47.981789,-122.184265,2300
83,MAPLE and EVERETT,47.981247,-122.191078,2282
84,MAPLE ST & PACIFIC AVE - SB,47.977615,-122.191200,2315
85,PACIFIC AVE & CEDAR ST - WB,47.976833,-122.193153,2331
86,PACIFIC AVE & FULTON ST - WB,47.976845,-122.194786,2325
87,EVERETT STATION - F 1,47.974426,-122.197998,2340
88,33RD and MCDOUGALL,47.974121,-122.199783,2323
89,PACIFIC AVE at LOMBARD AVE,47.976742,-122.202682,1457
9,EVERGREEN WAY & SW EVERETT MALL WAY - NB,47.904903,-122.243767,6265
90,PACIFIC AVE at ROCKEFELLER AVE - WB,47.976673,-122.205536,2356
91,WALL ST & HOYT AVE - WB,47.977894,-122.209503,1383
92,WALL ST & GRAND AVE - WB,47.977814,-122.213516,1373
93,PACIFIC AVE & NASSAU ST - EB,47.976410,-122.216103,1395
94,PACIFIC AVE & COLBY  AVE - EB,47.976482,-122.209152,1413
95,WETMORE AVE & WALL ST - NB,47.977322,-122.207115,2466
96,WETMORE AVE & HEWITT AVE - NB,47.978912,-122.207161,1360
97,WETMORE AVE & EVERETT AVE - NB,47.981300,-122.207146,1295
98,COLBY AVE & 26TH ST - NB,47.983418,-122.208481,1270
99,COLBY and 24TH,47.985405,-122.208412,1250
