stop_id,stop_name,stop_lat,stop_lon,zone_id
1,Marine Dr NE & 27th Ave NE,48.055831,-122.195338,2a
10,Ellison James Dr & Steve Williams Dr,48.069307,-122.276405,2a
1000,Hwy 99 & 148th St SW,47.864768,-122.281262,2b
1001,Hwy 99 & 156th St SW,47.858145,-122.287433,2b
1002,Hwy 99 & 44th Ave W,47.851515,-122.292599,2b
1003,Hwy 99 & 168th St SW,47.847233,-122.294283,2b
1004,Hwy 99 & 174th Pl SW,47.841287,-122.297577,2b
1005,Hwy 99 & 176th St SW,47.840086,-122.298615,2b
1006,Hwy 99 & 188th St SW,47.829242,-122.307983,2b
1007,Hwy 99 & 196th St SW,47.821808,-122.314416,2b
1008,Hwy 99 & 200th St SW,47.818159,-122.317556,2b
1009,Hwy 99 & 204th St SW,47.814403,-122.320815,2b
1010,Hwy 99 & 208th St SW,47.810781,-122.323569,2b
1011,Hwy 99 & 212th St SW,47.807338,-122.326046,2b
1012,Hwy 99 & 216th St SW,47.803709,-122.328668,2b
1013,Hwy 99 & 220th St SW,47.800138,-122.331243,2b
1014,Hwy 99 & 230th St SW,47.790828,-122.337944,2b
1015,Hwy 99 & 234th St SW,47.788417,-122.339685,2b
1016,Hwy 99 & 238th St SW,47.784054,-122.342821,2b
1017,Hwy 99 & 244th St SW,47.778441,-122.346152,2b
1018,Hwy 99 & 52nd Ave W,47.834851,-122.303137,2b
1020,Hwy 99 & Lincoln Wy,47.874119,-122.272545,2b
1021,Hwy 99 & N Manor Wy,47.880636,-122.266482,2b
1022,Hwy 99 & 76th Ave W,47.794917,-122.334995,2b
1023,Hwy 99 & 240th St SW,47.781248,-122.344993,2b
1024,Hwy 99 & Gibson Rd,47.882644,-122.264590,2b
1026,State Ave & 5th St,48.052960,-122.176802,2a
1027,State Ave & 7th St,48.054726,-122.176791,2a
1028,State Ave & 76th St NE,48.065175,-122.176711,2a
1029,State Ave & 80th St NE,48.068685,-122.176733,2a
1030,State Ave & 84th St NE,48.072309,-122.176336,2a
1031,State Ave & 88th St NE,48.075986,-122.175765,2a
1032,State Ave & 92nd St NE,48.079489,-122.174711,2a
1033,State Ave & Grove St,48.061554,-122.176694,2a
1034,State Ave & 1st St,48.049474,-122.176871,2a
1035,State Ave & 10th St,48.057871,-122.176766,2a
1037,S Stillaguamish Ave & Medical Center Dr,48.188756,-122.117590,2a
1039,Village Green Dr & 21st Dr SE,47.866172,-122.204305,2b
1040,Village Green Dr & Trillium Blvd SE,47.867238,-122.207768,2b
1044,Village Green Dr & 28th Dr SE,47.863764,-122.194727,2b
1045,Village Green Dr & 27th Dr SE,47.864975,-122.196189,2b
1049,N West Ave & E 5th St,48.197466,-122.128088,2a
1053,10th St & Orchard Ave,47.853091,-121.691949,2a
1054,100th Ave W & 232nd St SW,47.788362,-122.366891,2b
1056,100th Ave W & Edmonds Wy,47.790032,-122.366900,2b
1058,100th Ave W & 238th St SW,47.783372,-122.366695,2b
1070,179th Ave SE & Stanton St SE,47.860178,-121.990774,2a
1071,179th Ave SE & 154th St SE,47.857632,-121.990729,2a
1072,179th Ave SE & 157th Pl SE,47.854251,-121.990703,2a
1073,179th Ave SE & 147th St SE,47.864278,-121.990743,2a
1079,2nd Ave & Stewart St,47.610605,-122.340239,1
1084,20th Ave SE & 222nd St SE,47.796885,-122.204938,2b
1085,23rd Ave SE & 168th St SE,47.845403,-122.201963,2b
1087,23rd Ave SE & 171st Pl SE,47.842662,-122.201919,2b
1093,3rd Ave N & Edmonds St,47.813256,-122.378163,2b
1094,3rd Ave S & James St,47.810261,-122.380447,2b
1095,3rd Ave N & 4th Ave N,47.814870,-122.376806,2b
1096,3rd Ave N & Sater Ln,47.816672,-122.375325,2b
1097,35th Ave W & 151st Pl SW,47.862247,-122.280552,2b
1098,35th Ave W & 156th St SW,47.856764,-122.280427,2b
1099,35th Ave SE & 156th St SE,47.856666,-122.187077,2b
1100,35th Ave SE & 164th St SE,47.848810,-122.186814,2b
1101,36th Ave W & 165th Pl SW,47.849267,-122.281994,2b
1102,36th Ave W & 167th Pl SW,47.846372,-122.281974,2b
1103,36th Ave W & 172nd St SW,47.842712,-122.281929,2b
1104,36th Ave W & 176th Pl SW,47.838520,-122.281860,2b
1107,36th Ave W & 180th Pl SW,47.834799,-122.281903,2b
1110,39th Ave SE & 243rd Pl SE,47.777514,-122.180500,2b
1114,4th Ave W & 213th Pl SW,47.804694,-122.238583,2b
1115,4th Ave W & 216th St SW,47.802114,-122.238505,2b
1116,4th Ave W & 219th Pl SW,47.799087,-122.238550,2b
1120,4th Ave W & Hubbard Rd,47.806716,-122.238199,2b
1123,4th St & Main St,47.862598,-121.816615,2a
1126,44th Ave W & 20800 Block,47.810369,-122.292438,2b
1127,44th Ave W & 168th St SW,47.846019,-122.292656,2b
1128,44th Ave W & 176th St SW,47.838995,-122.292638,2b
1129,44th Ave W & 180th St SW,47.835351,-122.292629,2b
1130,44th Ave W & 181st Pl SW,47.833799,-122.292617,2b
1131,44th Ave W & 183rd Pl SW,47.832231,-122.292594,2b
1133,44th Ave W & 212th St SW,47.806009,-122.292462,2b
1134,44th Ave W & 221st Pl SW,47.799220,-122.292426,2b
1135,44th Ave W & 222nd St SW,47.797301,-122.292404,2b
1136,44th Ave W & 224th St SW,47.795851,-122.292384,2b
1137,44th Ave W & 228th St SW,47.791631,-122.292350,2b
1138,44th Ave W & 230th Pl SW,47.789352,-122.292152,2b
1140,44th Ave W & 172nd Pl SW,47.842345,-122.292642,2b
1141,44th Ave W & 174th Pl SW,47.840700,-122.292641,2b
1142,44th Ave W & 192nd St SW,47.824883,-122.292546,2b
1143,44th Ave W & 189th Pl SW,47.826465,-122.292545,2b
1144,44th Ave W & Hawk Wy,47.801762,-122.292440,2b
1145,44th Ave W & 226th St SW,47.793433,-122.292356,2b
1146,44th Ave W & 186th St SW,47.830463,-122.292568,2b
1148,47th Ave W & 107th St SW,47.900891,-122.294587,2b
1149,47th Ave W & 109th St SW,47.898884,-122.295847,2b
1150,47th Pl W & Harbour Pointe Blvd,47.904447,-122.296792,2b
1155,48th Ave W & 194th St SW,47.822571,-122.297952,2b
1156,48th Ave W & 196th St SW,47.820279,-122.297928,2b
1160,48th Ave W & 228th St SW,47.791691,-122.297768,2b
1161,48th Ave W & 233rd St SW,47.787120,-122.297753,2b
1166,5th Ave S & Dayton St,47.809448,-122.377720,2b
1167,5th Ave S & Howell Wy,47.806139,-122.377670,2b
1168,5th Ave S & Pine St,47.803339,-122.377676,2b
1170,5th Ave S & Elm Wy,47.800213,-122.377681,2b
1173,51st Ave NE & 146th St NE,48.128386,-122.162461,2a
1174,51st Ave NE & 110th Pl NE,48.094956,-122.162405,2a
1175,51st Ave NE & 130th Pl NE,48.113444,-122.162407,2a
1176,51st Ave NE & 135th Pl NE,48.118336,-122.162574,2a
1177,51st Ave NE & 139th St NE,48.120884,-122.162673,2a
1178,51st Ave NE & 117th Pl NE,48.101307,-122.162328,2a
1179,51st Ave NE & 123rd Pl NE,48.106461,-122.162334,2a
1180,51st Ave NE & 128th Pl NE,48.111294,-122.162376,2a
1181,51st Ave NE & 126th Pl NE,48.109375,-122.162364,2a
1182,51st Ave NE & 142nd Pl NE,48.124911,-122.162732,2a
1183,51st Ave NE & 119th Pl NE,48.102999,-122.162306,2a
1184,51st Ave NE & 139th Pl NE,48.122430,-122.162737,2a
1185,52nd Ave W & 148th St SW,47.864106,-122.303752,2b
1186,52nd Ave W & 152nd St SW,47.860407,-122.303761,2b
1187,52nd Ave W & 156th St SW,47.857166,-122.303771,2b
1188,52nd Ave W & 160th St SW,47.853480,-122.303764,2b
1191,52nd Ave W & 204th St SW,47.813503,-122.303318,2b
1192,52nd Ave W & 212th St SW,47.806163,-122.303293,2b
1193,52nd Ave W & 217th St SW,47.802665,-122.303263,2b
1196,52nd Ave W & 208th St SW,47.810419,-122.303295,2b
1197,52nd Ave W & 164th St SW,47.849957,-122.303758,2b
12,Totem Beach Rd & Tulalip Bay Dr,48.061587,-122.277576,2a
1202,56th Ave W & 224th St SW,47.795478,-122.308614,2b
1203,56th Ave W & 234th St SW,47.786271,-122.308551,2b
1206,56th Ave W & 222nd Pl SW,47.797180,-122.308625,2b
1207,56th Ave W & 232nd St SW,47.788898,-122.308512,2b
1209,56th Ave W & 228th St SW,47.791831,-122.308603,2b
1222,66th Ave W & 220th St SW,47.799002,-122.322090,2b
1223,66th Ave W & 222nd St SW,47.797444,-122.322090,2b
1224,66th Ave W & 224th St SW,47.795588,-122.322094,2b
1225,66th Ave W & 226th St SW,47.793784,-122.322091,2b
1230,67th Ave NE & Grove St,48.064157,-122.140939,2a
1232,67th Ave NE & 69th Pl NE,48.057791,-122.140962,2a
1233,67th Ave NE & 72nd St NE,48.060338,-122.140945,2a
1240,68th Ave W & 204th St SW,47.813840,-122.324906,2b
1242,Edmonds P&R - Bay 1,47.805318,-122.330152,2b
1243,72nd Ave NW & 261st St NW,48.233318,-122.330248,2a
1244,72nd Ave NW & 267th Pl NW,48.239121,-122.330368,2a
1245,72nd Ave NW & 265th St NW,48.237512,-122.330329,2a
1246,72nd Ave NW & 268th St NW,48.240390,-122.330384,2a
1251,76th Ave W & 196th St SW,47.820358,-122.336005,2b
1252,76th Ave W & 200th St SW,47.817561,-122.335964,2b
1253,76th Ave W & 203rd St SW,47.814565,-122.335955,2b
1254,76th Ave W & 206th St SW,47.811996,-122.335913,2b
1255,76th Ave W & 212th St SW,47.806499,-122.335847,2b
1256,76th Ave W & 218th St SW,47.801290,-122.335774,2b
1257,76th Ave W & 230th St SW,47.790349,-122.335599,2b
1258,76th Ave W & 234th St SW,47.786722,-122.335547,2b
1259,76th Ave W & 236th St SW,47.784825,-122.335528,2b
1260,76th Ave W & 238th Pl SW,47.782983,-122.335479,2b
1261,76th Ave W & 242nd St SW,47.779334,-122.335451,2b
1263,76th Ave W & 208th St SW,47.810239,-122.335882,2b
1264,76th Ave W & 216th St SW,47.803157,-122.335779,2b
1266,8th Ave S & Main St,47.810272,-122.369632,2b
1271,84th Ave W & 216th St SW,47.802995,-122.346624,2b
1272,84th Ave W & 218th St SW,47.801227,-122.346605,2b
1273,84th Ave W & 220th St SW,47.799431,-122.346594,2b
1274,84th Ave W & 228th St SW,47.792111,-122.346482,2b
1275,84th Ave W & 230th St SW,47.790332,-122.346454,2b
1276,84th Ave W & Bowdoin Wy,47.806293,-122.346684,2b
1277,84th Ave W & Holly Ln,47.788062,-122.346408,2b
1278,84th Ave W & 224th St SW,47.796119,-122.346546,2b
1279,84th Ave W & 236th St SW,47.785211,-122.346354,2b
1280,84th Ave W & 238th St SW,47.783537,-122.346313,2b
1286,9th Ave N & Hindley Ln,47.819448,-122.367143,2b
1288,91st Ave SE & 12th Pl SE,47.984670,-122.108861,2a
1289,91st Ave SE & 17th St SE,47.980389,-122.108918,2a
1290,91st Ave SE & 8th St SE,47.988706,-122.108846,2a
1299,Airport Rd & Admiralty Wy,47.883912,-122.253990,2b
13,Totem Beach Rd & 70th St NW,48.059251,-122.274737,2a
1301,Airport Rd & Hwy 99,47.888783,-122.258013,2b
1302,S Alder Ave & E Stanley St,48.083135,-121.964130,2a
1303,Alderwood Mall Pkwy & 184th St SW,47.831180,-122.268653,2b
1305,Alderwood Mall Pkwy & Beech Rd,47.828575,-122.268609,2b
1307,Beverly Park Rd & 138th Pl SW,47.872686,-122.293436,2b
1308,Beverly Park Rd & 49th Pl W,47.867678,-122.301013,2b
1309,Beverly Park Rd & Harbour Heights Rd,47.876283,-122.289401,2b
1310,Beverly Park Rd & Hwy 525,47.882156,-122.280750,2b
1312,Beverly Park Rd & 47th Pl W,47.874608,-122.291290,2b
1313,Beverly Park Rd & 132nd St SW,47.878872,-122.286519,2b
1314,Bickford Ave & 34th St,47.948915,-122.114211,2a
1316,Brier Rd & 232nd St SW (nearside),47.788909,-122.274379,2b
1318,Broadway & 14th St,47.998709,-122.201238,2
1328,Broadway & Tower St,48.006141,-122.197206,2
1329,Brook Blvd & Palomino Dr,47.837125,-122.204477,2b
1330,Brook Blvd & 175th St SE,47.839324,-122.202205,2b
1332,Cedar Wy & 232nd St SW,47.787987,-122.291747,2b
1347,Cypress Wy & 209th Pl SW,47.808586,-122.260355,2b
1348,Cypress Wy & 206th St SW,47.811711,-122.259737,2b
1349,Snohomish P&R - Bay 1,47.931398,-122.100317,2a
1350,Ave D & Fifth St,47.917420,-122.098364,2a
1351,Ave D & Bonneville Ave,47.922828,-122.098048,2a
1352,Ave D & Third St,47.914992,-122.098521,2a
1353,Ave D & 13th St,47.926706,-122.098195,2a
1354,S Emens Ave & Darrington St,48.249319,-121.602273,2a
1367,Evergreen Wy & 79th Pl SE,47.925577,-122.224820,2
1379,Firdale Ave & 243rd Pl SW,47.778180,-122.362673,2b
1380,Firdale Ave & 240th Pl SW,47.781085,-122.366241,2b
1385,Grade Rd & 22nd St NE,48.018907,-122.063094,2a
1386,Grade Rd & 29th Pl NE,48.024360,-122.064417,2a
1387,Grade Rd & Hwy 92,48.030077,-122.072300,2a
1389,Harbour Pointe Blvd & Chennault Beach Rd,47.897624,-122.304794,2b
1390,Harbour Pointe Blvd & Double Eagle Dr,47.887499,-122.310242,2b
1391,Harbour Pointe Blvd & Harbour Heights Pkwy,47.895403,-122.308616,2b
1392,Harbour Pointe Blvd & Saint Andrews Dr,47.893509,-122.311759,2b
1393,Harbour Pointe Blvd & 47th Pl W,47.904983,-122.295775,2b
1394,Hubbard Rd & 210th St SW,47.809107,-122.243315,2b
1397,I-5 & Marine Dr NE Flyer Stop,48.051611,-122.185628,2a
1398,I-5 & 116th St NE Flyer Stop,48.100599,-122.186308,2a
1399,Bothell P&R - Bay 2,47.759274,-122.199215,1
14,Totem Beach Rd & 64th St NW,48.055467,-122.271102,2a
140,Puget Park Dr & 136th St SE,47.874059,-122.154081,2b
1401,Lakeview Dr & Ballinger Park,47.787786,-122.326789,2b
1403,Marine Dr & Warm Beach Conf Ctr,48.184177,-122.347387,2a
1405,Marine Dr & Boe Rd,48.212676,-122.336264,2a
1406,Marine Dr & Hatt Slough,48.209793,-122.336791,2a
1407,Marine Dr & Thomle Rd,48.224722,-122.337236,2a
1408,Marine Dr & 201st St NW,48.178889,-122.352037,2a
1409,Marine Dr & 81st Ave NW,48.188965,-122.340381,2a
141,Puget Park Dr & 138th Pl SE,47.871358,-122.156527,2b
1410,Marine Dr & 226th St NW,48.203018,-122.338242,2a
1419,Mountain Loop Hwy & Alvord St,48.251290,-121.600968,2a
142,164th St SW & Larch Wy,47.849693,-122.247344,2b
1420,Mountain Loop Hwy & Seemann St,48.254772,-121.601788,2a
1427,Olympic View Dr & 172nd St SW,47.842815,-122.322140,2b
143,164th St SE & 1st Ave SE,47.849248,-122.231095,2b
1430,Olympic View Dr & 170th Pl SW,47.844470,-122.319703,2b
1435,Railroad Ave & Beach Pl,47.811136,-122.384621,2b
1436,Edmonds Station - Bay 4,47.811944,-122.383497,2b
144,Puget Park Dr & 146th St SE,47.865137,-122.163062,2b
1443,Shoultes Rd & 107th Pl NE,48.091750,-122.163915,2a
1444,Shoultes Rd & 100th St NE,48.086167,-122.171288,2a
1445,Shoultes Rd & 103rd Pl NE,48.088837,-122.167048,2a
1447,Smokey Point Blvd & 156th St NE (farside),48.136958,-122.183232,2a
1448,Smokey Point Blvd & 172nd St NE,48.152040,-122.183071,2a
1449,Smokey Point Transit Ctr - Bay 3,48.154525,-122.182959,2a
145,Puget Park Dr & 148th St SE,47.863778,-122.160905,2b
1450,Smokey Point Blvd & 166th Pl NE,48.145202,-122.183088,2a
1451,Smokey Point Blvd & 183rd Pl NE,48.162879,-122.183010,2a
1453,Smokey Point Blvd & 177th Pl NE,48.157145,-122.183053,2a
1455,Hwy 525 & 3rd St,47.946466,-122.304152,2b
1456,Hwy 525 & 81st Pl SW,47.923973,-122.300347,2b
1457,Hwy 525 & 84th St SW,47.921641,-122.300276,2b
1458,Hwy 525 & 88th St SW,47.918277,-122.300181,2b
1459,Hwy 525 & 92nd St SW,47.914759,-122.297026,2b
146,Puget Park Dr & Silver Firs Dr,47.862580,-122.155182,2b
1460,Hwy 525 & Beverly Park Rd,47.882033,-122.279658,2b
1461,Hwy 525 & Chennault Beach Rd,47.898923,-122.291298,2b
1462,Hwy 525 & Harbour Pointe Blvd SW,47.889486,-122.284779,2b
1464,Hwy 525 & Russell Rd,47.895980,-122.289238,2b
1465,Hwy 525 & Front St,47.948454,-122.304319,2b
1466,Hwy 525 & Harbour Pointe Blvd,47.905641,-122.293233,2b
1467,Hwy 525 & Lincoln Wy,47.873645,-122.276595,2b
1468,Hwy 525 & 76th St SW,47.929206,-122.301776,2b
1469,Hwy 525 & 80th St SW,47.925618,-122.300389,2b
147,Puget Park Dr & 62nd Dr SE,47.863057,-122.148031,2b
1470,Hwy 525 & Clover Ln,47.933313,-122.306462,2b
1472,Hwy 525 & Goat Trail Rd,47.939969,-122.305905,2b
1473,Hwy 527 & 16th Ave SE,47.876795,-122.211983,2b
1474,Hwy 527 & 164th St SE,47.848643,-122.217262,2b
1475,Hwy 527 & NE 190th St,47.765023,-122.209147,2b
1476,Hwy 527 & 192nd St SE,47.823530,-122.207533,2b
1477,Hwy 527 & 196th St SE,47.819858,-122.207562,2b
1478,Hwy 527 & 201st Pl SE,47.813540,-122.207606,2b
1479,Hwy 527 & Maltby Rd,47.807611,-122.207709,2b
148,Snohomish Cascade Dr & 146th Pl SE,47.864569,-122.145299,2b
1481,Hwy 527 & 228th St SE,47.790506,-122.217525,2b
1482,Hwy 527 & 234th St SE,47.783219,-122.220439,2b
1483,Hwy 527 & 180th St SE,47.834832,-122.210980,2b
1486,Hwy 527 & Seattle Hill Rd,47.844031,-122.215929,2b
1487,Hwy 527 & NE 186th St,47.762596,-122.207611,2b
149,Snohomish Cascade Dr & 142nd St SE,47.868628,-122.144273,2b
1490,Arlington P&R - Bay 1,48.196264,-122.128948,2a
1491,Hwy 9 & Lundeen Pkwy,48.012984,-122.108126,2a
1492,Hwy 9 & Hwy 204,48.002357,-122.106340,2a
1493,Hwy 99 & 40th Ave W,47.860516,-122.285552,2b
1495,Hwy 99 & 60th Ave W,47.824834,-122.312124,2b
1497,Hwy 99 & 148th St SW,47.863377,-122.282890,2b
1498,Hwy 99 & 156th St SW,47.856540,-122.289249,2b
1499,Hwy 99 & 168th St SW,47.845683,-122.295172,2b
15,64th St NW & Joseph Charles Jr Loop,48.053625,-122.267284,2a
150,Snohomish Cascade Dr & 141st St SE,47.869776,-122.144139,2b
1500,Hwy 99 & 174th Pl SW,47.840545,-122.298530,2b
1501,Hwy 99 & 176th St SW,47.838213,-122.300565,2b
1502,Hwy 99 & 188th St SW,47.827718,-122.309645,2b
1503,Hwy 99 & 196th St SW,47.820528,-122.315845,2b
1504,Hwy 99 & 200th St SW,47.817289,-122.318638,2b
1505,Hwy 99 & 202nd St SW,47.815290,-122.320364,2b
1506,Hwy 99 & 208th St SW,47.809728,-122.324633,2b
1507,Hwy 99 & 212th St SW,47.805999,-122.327318,2b
1508,Hwy 99 & 216th St SW,47.802545,-122.329811,2b
1509,Hwy 99 & 220th St SW,47.798952,-122.332409,2b
151,Snohomish Cascade Dr & 138th Pl SE,47.871293,-122.145013,2b
1510,Hwy 99 & 224th St SW,47.795591,-122.334827,2b
1511,Hwy 99 & 230th St SW,47.790204,-122.338707,2b
1512,Hwy 99 & 44th Ave W,47.851757,-122.292793,2b
1513,Hwy 99 & Airport Rd,47.888374,-122.259652,2b
1514,Hwy 99 & Russell Wy,47.879580,-122.267778,2b
1516,Hwy 99 & 234th St SW,47.787142,-122.340913,2b
1517,Hwy 99 & 238th St SW,47.783724,-122.343373,2b
1518,Hwy 99 & Gibson Rd,47.883367,-122.264243,2b
1519,Hwy 99 & Lincoln Wy,47.873945,-122.273030,2b
152,Puget Park Dr & 54th Ave SE,47.868585,-122.160107,2b
1521,Hwy 99 & 180th St SW,47.834975,-122.303349,2b
1522,State Ave & 100th St NE,48.083494,-122.173154,2a
1523,State Ave & 2nd St,48.050189,-122.177171,2a
1524,State Ave & 6th St,48.053496,-122.177127,2a
1525,State Ave & 8th St,48.055204,-122.177110,2a
1526,State Ave & 80th St NE,48.068239,-122.177085,2a
1527,State Ave & 88th St NE,48.075254,-122.176237,2a
1528,State Ave & Grove St,48.060897,-122.177078,2a
1529,State Ave & 84th St NE,48.071999,-122.176737,2a
153,Snohomish Cascade Dr & 142nd St SE,47.868095,-122.144818,2b
1530,State Ave & 10th St,48.057875,-122.177110,2a
1531,State Ave & 76th St NE,48.064724,-122.177063,2a
1533,E Stevens Wy NE & Pend Oreille Rd NE,47.657102,-122.304740,1
1534,E Stevens Wy NE & Benton Ln NE,47.654573,-122.305001,1
1535,S Stillaguamish Ave & Medical Center Dr,48.188690,-122.117797,2a
1537,Village Green Dr & 26th Dr SE,47.864881,-122.196247,2b
1538,Village Green Dr & Willow Ln SE,47.865369,-122.202409,2b
154,Snohomish Cascade Dr & 146th Pl SE,47.863953,-122.145507,2b
1541,Village Green Dr & 28th Dr SE,47.863918,-122.195114,2b
1542,Village Green Dr & 20th Dr SE,47.867236,-122.207972,2b
1549,E 1st St & N Lenore Ave,48.192485,-122.121681,2a
155,Puget Park Dr & 62nd Dr SE,47.863207,-122.148813,2b
1550,E 1st St & N Stillaguamish Ave,48.192448,-122.117686,2a
1551,107th St SW & 47th Ave W,47.901306,-122.294974,2b
1552,128th St SE & 3rd Ave SE,47.882051,-122.228761,2b
1553,128th St SW & 4th Ave W,47.882023,-122.239346,2b
1554,128th St SW & 8th Ave W,47.881974,-122.245748,2b
1557,132nd St SE & 25th Ave SE,47.878104,-122.199102,2b
1558,132nd St SE & 29th Ave SE,47.878055,-122.193741,2b
1559,132nd St SE & 35th Ave SE,47.877959,-122.185706,2b
156,Puget Park Dr & Silver Firs Dr,47.862606,-122.156279,2b
1560,132nd St SE & 44th Ave SE,47.877895,-122.173624,2b
1562,132nd St SE & Seattle Hill Rd,47.877858,-122.166519,2b
1564,132nd St SE & 21st Dr SE,47.878163,-122.202678,2b
1565,134th Pl SE & 58th Dr SE,47.875923,-122.152686,2b
1566,148th St SW & 45th Pl W,47.864289,-122.295213,2b
1567,148th St SW & 48th Pl W,47.864389,-122.299600,2b
1568,148th St SW & Hwy 99,47.864228,-122.284291,2b
1569,152nd St NE & 47th Ave NE,48.133999,-122.168021,2a
157,Puget Park Dr & 54th Ave SE,47.863701,-122.159953,2b
1570,152nd St NE & 51st Ave NE,48.133915,-122.162755,2a
1571,152nd St NE & 43rd Ave NE,48.134057,-122.172716,2a
1572,152nd St NE & 39th Ave NE,48.134187,-122.179428,2a
1573,Swamp Creek P&R - Bay 1,47.850001,-122.276450,2b
1574,164th St SW & 2nd Pl W,47.849478,-122.236503,2b
1575,164th St SW & Alderwood Mall Pkwy,47.850012,-122.270747,2b
1576,164th St SE & 3rd Ave SE,47.849331,-122.228169,2b
1577,164th St SW & Ash Wy,47.849890,-122.261224,2b
1578,164th St SE & Meridian Ave S,47.849426,-122.233166,2b
1579,164th St SW & 7th Pl W,47.849618,-122.242719,2b
158,Puget Park Dr & 53rd Ave SE,47.863995,-122.161309,2b
1580,164th St SE & Mill Creek Blvd,47.849507,-122.221078,2b
1581,164th St SW & 13th Ave W,47.849799,-122.252679,2b
1582,164th St SW & Spruce Wy,47.850098,-122.285040,2b
1583,W Main St & 170th Dr SE,47.848794,-122.004307,2a
1584,168th St SE & 28th Dr SE,47.845637,-122.194780,2b
1586,168th St SW & 52nd Ave W,47.846652,-122.304055,2b
1587,168th St SW & 60th Ave W,47.846660,-122.314694,2b
1589,168th St SE & 30th Dr SE,47.845544,-122.191270,2b
159,Puget Park Dr & 138th Pl SE,47.872385,-122.155404,2b
1590,168th St SE & 25th Ave SE,47.845703,-122.198838,2b
1591,172nd St NE & 11th Ave NE,48.151894,-122.215907,2a
1592,172nd St NE & 27th Ave NE,48.152302,-122.192481,2a
1593,172nd St NE & 3rd Ave NE,48.152075,-122.227495,2a
1594,172nd St NE & Smokey Point Blvd,48.152511,-122.183566,2a
1595,172nd St NW & Lakewood Rd,48.152097,-122.237817,2a
1600,180th St SE & Hwy 527,47.834767,-122.209484,2b
1601,184th St SW & 33rd Ave W,47.832012,-122.278327,2b
161,E 1st St & S French Ave,48.192352,-122.122305,2a
1611,188th St NE & 35th Ave NE,48.167062,-122.184030,2a
1613,194th St SW & 44th Ave W,47.822821,-122.292785,2b
1614,194th St SW & 46th Ave W,47.822875,-122.295823,2b
1616,196th St SW & 58th Pl SW,47.821231,-122.312551,2b
1617,196th St SW & 64th Ave W,47.821308,-122.320166,2b
1618,196th St SW & 68th Ave W,47.821389,-122.325921,2b
1619,196th St SW & 76th Ave W,47.821511,-122.336466,2b
162,E 1st St & N Washington Ave,48.192312,-122.117777,2a
1620,196th St SW & 80th Ave W,47.821522,-122.341738,2b
1621,196th St SW & 84th Ave W,47.821533,-122.347300,2b
1622,196th St SW & 86th Ave W,47.821513,-122.349803,2b
1623,196th St SW & Hwy 99,47.821233,-122.316223,2b
1625,196th St SW & Heinz Pl,47.821442,-122.330935,2b
1626,Second St & Ave C,47.913020,-122.097359,2a
1627,Second St & Maple Ave,47.912800,-122.089169,2a
1628,Second St & Pine Ave,47.912729,-122.086398,2a
1629,Second St & Ave A,47.912939,-122.094225,2a
1630,20th St NE & 112th Dr NE,48.015506,-122.079767,2a
1631,20th St NE & 116th Ave NE,48.015704,-122.074889,2a
1632,20th St NE & 118th Ave NE,48.015689,-122.071664,2a
1633,20th St NE & Hartford Dr,48.015601,-122.063812,2a
1635,Alderwood Mall Blvd & 40th Ave W,47.817394,-122.289798,2b
1637,200th St SW & 48th Ave W,47.817453,-122.298703,2b
1638,200th St SW & 50th Ave W,47.817487,-122.301615,2b
1639,200th St SW & 52nd Pl W,47.817523,-122.304331,2b
1640,200th St SW & 56th Ave W,47.817537,-122.309425,2b
1641,200th St SW & 64th Ave W,47.817689,-122.319940,2b
1642,200th St SW & Scriber Lake Rd,47.817600,-122.314975,2b
1643,Alderwood Mall Blvd & 44th Ave W,47.817390,-122.292041,2b
1645,200th St SW & 66th Pl W,47.817774,-122.324164,2b
1646,204th St SW & 28th Ave W,47.813642,-122.271298,2b
1647,204th St NE & Olympic Pl NE,48.180898,-122.126679,2a
1648,204th St SW & Poplar Wy,47.813626,-122.279036,2b
1649,204th St SW & 24th Ave W,47.813555,-122.265132,2b
165,128th St SE & 3rd Ave SE,47.881904,-122.227486,2b
1650,204th St SW & 38th Ave W,47.813680,-122.283718,2b
1651,204th St NE & 71st Ave NE,48.180947,-122.136671,2a
1652,207th St NE & S Stillaguamish Ave,48.184270,-122.118798,2a
1656,208th St SW & 70th Ave W,47.810568,-122.329399,2b
1662,212th St SW & 80th Ave W,47.806989,-122.341552,2b
1663,212th St SW & 74th Ave W,47.806944,-122.332449,2b
1664,212th St SW & 84th Ave W,47.806999,-122.346131,2b
1666,220th St SW & 53rd Ave W,47.799328,-122.304763,2b
1667,220th St SW & 70th Ave W,47.799640,-122.328421,2b
167,128th St SW & 8th Ave W,47.881810,-122.243726,2b
1675,220th St SW & Hwy 99,47.799704,-122.333795,2b
1676,220th St SW & 58th Ave W,47.799517,-122.310898,2b
1677,220th St SW & 66th Ave W,47.799541,-122.321727,2b
168,128th St SW & E Gibson Rd,47.881760,-122.249712,2b
1680,228th St SE & 15th Ave SE,47.791375,-122.213529,2b
1681,228th St SW & 32nd Ave W,47.791894,-122.277038,2b
1682,228th St SW & 39th Ave W,47.791874,-122.287084,2b
1683,228th St SW & 42nd Pl W,47.791902,-122.290226,2b
1684,228th St SW & 73rd Pl W,47.792381,-122.332236,2b
1685,228th St SW & 35th Ave W,47.791833,-122.280141,2b
1686,228th St SW & 76th Ave W,47.792440,-122.335289,2b
1687,228th St SW & 29th Ave W,47.792041,-122.272351,2b
1689,230th St SW & 60th Ave W,47.790348,-122.313684,2b
169,128th St SE & Park Dr,47.881809,-122.222690,2b
1694,Mountlake Terrace TC - Bay 3,47.784856,-122.315557,2b
1695,236th St SW & 48th Ave W,47.784717,-122.298051,2b
1696,236th St SW & 50th Ave W,47.784747,-122.300818,2b
1697,236th St SW & 52nd Ave W,47.784791,-122.303423,2b
1698,236th St SW & 54th Ave W,47.784803,-122.306109,2b
1699,236th St SW & 56th Ave W,47.784832,-122.309169,2b
17,Marine Dr NE & Meridian Ave N,48.038544,-122.232699,2a
1701,236th St SW & 44th Pl W,47.784798,-122.291759,2b
1703,238th St SW & 84th Ave W (farside),47.783294,-122.347234,2b
1704,238th St SW & 84th Ave W (nearside),47.783305,-122.345147,2b
1705,238th St SW & Edmonds Wy,47.783278,-122.350675,2b
1707,244th St SW & 3rd Ave NW,47.777824,-122.359774,2b
1708,244th St SW & 87th Pl W,47.777824,-122.351134,2b
1709,244th St SW & 91st Ave W,47.777819,-122.355421,2b
171,132nd St SE & 25th Ave SE,47.877957,-122.198275,2b
1710,244th St SW & Whitman Ave N,47.777854,-122.347620,2b
1711,Stanwood II Park & Ride - Bay 1,48.239206,-122.349624,2a
1717,276th St NW & 78th Ave NW,48.246759,-122.338788,2a
172,132nd St SE & 29th Dr SE,47.877915,-122.193102,2b
1720,4th St & Quinn Ave,48.051872,-122.171531,2a
1721,4th St & Columbia Ave,48.051915,-122.174955,2a
1724,NE 45th St & Brooklyn Ave NE,47.661313,-122.313837,1
1725,NE 45th St & 9th Ave NE,47.661337,-122.318103,1
173,132nd St SE & 35th Ave SE,47.877822,-122.184997,2b
1730,64th St NE & 60th Dr NE,48.053887,-122.149762,2a
1731,64th St NE & 55th Dr NE,48.053999,-122.157481,2a
1732,64th St NE & 67th Ave NE,48.053716,-122.141227,2a
174,132nd St SE & 44th Ave SE,47.877753,-122.172911,2b
1740,92nd St SE & 113th Dr SE,47.913339,-122.078696,2a
1741,94th St SW & Airport Rd,47.913414,-122.272480,2
1742,Alderwood Mall Blvd & 28th Ave W,47.826229,-122.271130,2b
1743,Alderwood Mall Blvd & 33rd Ave W,47.822565,-122.277954,2b
1744,Beardslee Blvd & 110th Ave NE,47.763482,-122.194263,2b
1748,Boeing Gate E-67,47.914845,-122.276872,2
175,132nd St SE & Seattle Hill Rd,47.877707,-122.165529,2b
1755,E Burke Ave & Manhattan St,48.200322,-122.121578,2a
1768,Caspers St & Brookmere Dr,47.817841,-122.372445,2b
1769,Caspers St & 8th Ave N,47.817841,-122.369762,2b
1770,Chennault Beach Rd & 47th Ave W,47.895794,-122.297546,2b
1773,Dayton St & Durbin Dr,47.809755,-122.372812,2b
1774,Dayton St & 5th Ave S,47.809768,-122.377929,2b
1775,Dayton St & 6th Ave S,47.809761,-122.375222,2b
1776,Dayton St & 8th Ave S,47.809772,-122.369914,2b
1778,Dayton St & Sunset Ave,47.809762,-122.382874,2b
1785,Front St & Hwy 525,47.948820,-122.304247,2b
179,148th St SW & 48th Ave W,47.864221,-122.297945,2b
18,Marine Dr NE & 19th Ave NE,48.053118,-122.205359,2a
180,148th St SW & 52nd Ave W,47.864296,-122.303008,2b
1801,Harbour Pointe Blvd  SW & Harbour Reach Dr,47.887140,-122.294419,2b
1802,Harbour Pointe Blvd  SW & Hwy 525,47.889695,-122.286040,2b
1803,Harbour Pointe Blvd SW & Blue Heron Blvd,47.886515,-122.298478,2b
1805,Lake View Dr & Cedar Rd,48.015433,-122.084162,2a
1806,Lakewood Rd & Lake Ki,48.156717,-122.261673,2a
1807,Lakewood Rd & 184th St NW,48.163703,-122.336519,2a
1808,Lakewood Rd & 31st Dr NW,48.155671,-122.274966,2a
1809,Lakewood Rd & 53rd Dr NW,48.155963,-122.307092,2a
181,148th St SW & Hwy 99,47.864091,-122.284059,2b
1810,Lakewood Rd & 60th Ave NW,48.158940,-122.313763,2a
1811,Lakewood Rd & 84th Dr NW,48.167319,-122.346207,2a
1812,Lakewood Rd & 176th Pl NW,48.156790,-122.245280,2a
1813,Lakewood Rd & 65th Dr NW,48.161016,-122.326875,2a
1814,Lakewood Rd & 52nd Ave NW,48.155834,-122.297217,2a
1815,Logan Rd & 14th Pl W,47.809055,-122.252398,2b
1816,Lundeen Pkwy & Callow Rd,48.017925,-122.090958,2a
1817,Lundeen Pkwy & 101st Ave NE,48.017908,-122.095023,2a
1819,Main St & 12th Ave N,47.810567,-122.359733,2b
182,152nd St NE & 43rd Ave NE,48.133898,-122.171544,2a
1821,Main St & 84th Ave W,47.807474,-122.347394,2b
1822,Main St & 86th Pl W,47.810584,-122.350839,2b
1823,Main St & 9th Ave N,47.810596,-122.367366,2b
1826,W Main St & N Kelsey St,47.853715,-121.977500,2a
1827,Main St & Maplewood Dr,47.810578,-122.354962,2b
1828,Main St & Olympic Ave,47.810576,-122.362094,2b
183,152nd St NE & Smokey Point Blvd,48.134106,-122.182850,2a
1830,Main St & Hwy 2,47.862597,-121.807510,2a
1832,Mill Creek Rd & Mill Pointe Dr SE,47.851363,-122.205880,2b
1833,Market Pl & 91st Ave NE,47.997952,-122.107784,2a
1834,Monte Villa Pkwy & 39th Ave SE,47.778231,-122.182215,2b
1836,Monte Villa Pkwy & 35th Ave SE,47.778816,-122.185163,2b
1839,E Pioneer St & S Alder Ave,48.079898,-121.964312,2a
184,152nd St NE & 51st Ave NE,48.133777,-122.162629,2a
1840,Puget Dr & Olympic View Dr,47.821569,-122.364951,2b
1842,Seattle Hill Rd & 35th Ave SE,47.860403,-122.186555,2b
1843,Seattle Hill Rd & 2900 Block,47.856161,-122.193973,2b
1844,Seattle Hill Rd & 25th Ave SE,47.852823,-122.199645,2b
1845,Seemann St & Givens Ave,48.255352,-121.603241,2a
1847,Smokey Point Transit Ctr - Bay 1,48.154635,-122.184618,2a
1848,Edmonds Wy & Paradise Ln,47.795187,-122.373612,2b
1849,Edmonds Wy & 100th Ave W,47.790705,-122.367420,2b
185,152nd St NE & 39th Ave NE,48.134050,-122.179425,2a
1850,Edmonds Wy & 232nd St SW,47.789815,-122.356054,2b
1851,Edmonds Wy & 236th St SW,47.784383,-122.353010,2b
1853,Edmonds Wy & 95th Pl W,47.792071,-122.359400,2b
1859,Hwy 520 & Evergreen Point Fwy Stn,47.636960,-122.235982,1
186,152nd St NE & 47th Ave NE,48.133852,-122.166784,2a
1860,Hwy 520 & Montlake Fwy Station,47.644506,-122.303150,1
1862,Hwy 530 & Ramstad Rd (farside),48.268524,-121.960720,2a
1863,Hwy 530 & Boulder Creek Dr,48.278153,-121.779536,2a
1864,Hwy 530 & 379th Ave NE,48.268814,-121.718964,2a
1865,Hwy 530 & Powerline Rd,48.263183,-121.633089,2a
1866,Hwy 530 & 355th Ave NE,48.277155,-121.750736,2a
1867,Hwy 530 & 119th Ave NE,48.234609,-122.067556,2a
1868,Hwy 530 & 171st Ave NE(Cicero Pk),48.273464,-121.999289,2a
1869,Hwy 530 & N Brooks Creek Rd,48.273597,-121.915114,2a
187,164th St SW & 13th Ave W,47.849633,-122.250838,2b
1870,Hwy 530 & 294th St NE,48.264960,-122.019947,2a
1871,Hwy 530 & 411th Ave NE,48.269262,-121.676845,2a
1872,Hwy 530 & Hillis Rd,48.268289,-122.010505,2a
1873,Hwy 530 & Seemann St,48.255520,-121.608856,2a
1874,Hwy 530 & Squire Creek Rd,48.270614,-121.670334,2a
1875,Hwy 530 & Swede Heaven Rd,48.268770,-121.707224,2a
1877,Hwy 530 & E Post Rd,48.277177,-121.813323,2a
1878,Hwy 530 & 139th Ave NE,48.247715,-122.041612,2a
1879,Hwy 530 & 310th St NE,48.276907,-121.797579,2a
188,W Main St & 170th Dr SE,47.848676,-122.002712,2a
1880,Hwy 530 & Lake Cavanaugh Rd,48.270274,-121.934530,2a
1881,Hwy 530 & Ramstad Rd (nearside),48.269106,-121.953842,2a
1882,Hwy 530 & Whitman Rd,48.271500,-121.888377,2a
1883,Hwy 530 & 171st Ave NE (farside),48.270553,-122.004093,2a
1884,Hwy 530 & 179th Ave NE,48.273673,-121.984217,2a
1885,Hwy 530 & 115th Ave NE,48.231695,-122.076227,2a
1887,Hwy 530 & French Creek Rd,48.278588,-121.764520,2a
1888,Hwy 530 & Tom Creek Rd,48.270006,-121.729316,2a
1889,Hwy 530 & Oso Loop Rd,48.272264,-121.900121,2a
189,164th St SW & Alderwood Mall Pkwy,47.849875,-122.270743,2b
1891,Hwy 530 & 223rd Ave NE,48.271365,-121.928134,2a
1893,Hwy 92 & 44th St NE (nearside),48.039591,-122.045815,2a
1894,Hwy 92 & 127th Dr NE,48.032082,-122.059394,2a
1895,Hwy 92 & 161st Ave NE,48.067160,-122.015789,2a
1896,Hwy 92 & 44th St NE,48.035963,-122.049981,2a
1897,Hwy 92 & 84th St NE,48.071531,-122.010080,2a
1898,Hwy 92 & 64th St NE,48.057831,-122.026249,2a
1899,Hwy 92 & 75th St NE,48.064059,-122.019227,2a
19,Marine Dr NE & 21st Dr NE,48.054296,-122.201763,2a
190,164th St SE & 3rd Ave SE,47.849195,-122.227143,2b
1900,Hwy 92 & 147th Ave NE,48.052524,-122.031970,2a
1902,Hwy 92 & Crooked Mile Rd,48.079165,-122.001356,2a
1904,W Stanley St & Portage Ave,48.083351,-121.974666,2a
1905,W Stevens Wy NE & George Washington Ln NE,47.655092,-122.310896,1
1906,W Stevens Wy NE & Okanogan Ln NE,47.652145,-122.308690,1
1907,Stewart St & 4th Ave,47.612088,-122.339187,1
1908,Stewart St & 7th Ave,47.614475,-122.335999,1
1909,Stewart St & 9th Ave,47.615854,-122.334320,1
191,164th St SW & 6th Ave W,47.849452,-122.240824,2b
1911,Stewart St & Yale Ave,47.618094,-122.331254,1
1912,Hwy 2 & Old Owen Rd,47.858422,-121.829690,2a
1913,Hwy 2 & 383rd Ave SE,47.864977,-121.717716,2a
1914,Hwy 2 & 1st St,47.857683,-121.702914,2a
1915,Hwy 2 & 179th Ave SE,47.865897,-121.991130,2a
1916,Hwy 2 & 368th Dr SE,47.867275,-121.738360,2a
1917,Hwy 2 & Calhoun Rd,47.855906,-121.927955,2a
1918,Hwy 2 & Chain Lake Rd,47.859675,-121.971790,2a
192,164th St SE & Mill Creek Blvd,47.849392,-122.219983,2b
1920,Hwy 2 & N Kelsey St,47.861136,-121.978190,2a
1921,Hwy 2 & 339th Ave SE,47.867913,-121.778403,2a
1922,Hwy 2 & Roosevelt Rd (East),47.872681,-122.008283,2a
1923,Hwy 2 & Woods Creek Rd SE,47.858326,-121.965808,2a
1925,Hwy 2 & 364th Ave SE,47.867261,-121.744252,2a
1926,Hwy 2 & Roosevelt Rd (West),47.900532,-122.036482,2a
1927,Hwy 2 & Westwick Rd,47.905376,-122.043008,2a
1928,Monroe P&R - Bay 1,47.868308,-121.995837,2a
1929,Sultan P&R - Bay 1,47.863594,-121.802049,2a
193,164th St SW & Larch Wy,47.849531,-122.246484,2b
1932,S Kentucky Ave & E Pioneer St,48.079929,-121.966719,2a
1933,S Alder Ave & E Pioneer St,48.080409,-121.963951,2a
1934,S Alder Ave & E Stanley St,48.083244,-121.963923,2a
194,164th St SW & North Rd,47.849317,-122.235322,2b
195,164th St SW & Spruce Wy,47.849954,-122.284249,2b
197,Swamp Creek P&R - Bay 2,47.849999,-122.276364,2b
198,168th St SE & 23rd Ave SE,47.845582,-122.201418,2b
199,168th St SE & 25th Ave SE,47.845560,-122.198203,2b
200,168th St SE & 28th Dr SE,47.845482,-122.194197,2b
202,168th St SW & 52nd Ave W,47.846517,-122.304568,2b
203,168th St SE & 30th Dr SE,47.845403,-122.191128,2b
2035,Lynnwood Transit Center,47.815955,-122.296434,2b
2038,Mariner P&R,47.879858,-122.238806,2b
2039,McCollum Park P&R,47.879289,-122.220698,2b
204,168th St SW & 60th Ave W,47.846535,-122.315453,2b
205,172nd St NE & 16th Dr NE,48.151825,-122.208403,2a
2058,Smokey Point Transit Ctr,48.154639,-122.184036,2a
206,172nd St NE & 11th Ave NE,48.151754,-122.215006,2a
207,172nd St NE & 27th Ave NE,48.152141,-122.193337,2a
2085,Hwy 527 & Mill Creek Blvd,47.855176,-122.218280,2b
209,172nd St NE & 3rd Ave NE,48.151940,-122.227758,2a
2090,Smokey Point Blvd & 169th Pl NE,48.149397,-122.183071,2a
2091,McCollum Park P&R - Bay 1,47.879129,-122.220759,2b
2092,McCollum Park P&R - Bay 2,47.879289,-122.220698,2b
2097,Mountlake Terrace TC - Bay 1,47.785463,-122.315066,2b
2098,Mountlake Terrace TC - Bay 2,47.785216,-122.315083,2b
2103,Mariner P&R - Bay 1,47.880151,-122.238806,2b
2104,Mariner P&R - Bay 2,47.879858,-122.238810,2b
2105,Mariner P&R - Bay 3,47.879730,-122.238505,2b
2106,Mariner P&R - Bay 4,47.880061,-122.238510,2b
2108,Lynnwood Transit Center - Bay B5,47.816090,-122.295742,2b
2109,Lynnwood Transit Center - Bay C1,47.815960,-122.297118,2b
2110,Lynnwood Transit Center - Bay C2,47.815959,-122.296760,2b
2112,Lynnwood Transit Center - Bay C5,47.815952,-122.295791,2b
2113,Lynnwood Transit Center - Bay D1,47.815856,-122.297058,2b
2114,Lynnwood Transit Center - Bay D2,47.815850,-122.296676,2b
2115,Lynnwood Transit Center - Bay A2,47.816211,-122.296763,2b
2119,Lynnwood Transit Center - Bay B3,47.816093,-122.296361,2b
2120,Lynnwood Transit Center - Bay B4,47.816092,-122.296031,2b
2124,Edmonds CC Transit Center - Bay 2,47.816012,-122.325535,2b
2126,Edmonds CC Transit Center - Bay 4,47.815769,-122.325637,2b
2127,Edmonds CC Transit Center - Bay 5,47.815802,-122.325402,2b
2131,Ash Way P&R - Bay 1,47.852872,-122.258288,2b
2132,Canyon Park P&R - Bay 1,47.793721,-122.211117,2b
2134,Canyon Park P&R - Bay 2,47.793852,-122.211393,2b
2137,132nd St SE & 16th Ave SE,47.878283,-122.211358,2b
2143,209th St NE & Jensen Farm Ln,48.182930,-122.122470,2a
2144,Eastmont P&R - Bay 1,47.915285,-122.204713,2
215,180th St SE & Hwy 527,47.834628,-122.209680,2b
2150,I-405 & Brickyard Fwy Station,47.743769,-122.186116,1
2151,I-405 & Brickyard Fwy Station,47.741771,-122.187869,1
2158,I-5 & NE 145th St Fwy Station,47.733704,-122.324197,1
2162,Ash Way P&R - Bay 2,47.853195,-122.257905,2b
2163,Ash Way P&R - Bay 3,47.853387,-122.257650,2b
2165,I-5 & NE 145th St Fwy Station,47.732536,-122.325045,1
2166,I-5 & NE 45th St Fwy Station,47.660545,-122.322951,1
2167,Lynnwood Transit Center - Bay B1,47.816098,-122.297061,2b
2168,Lynnwood Transit Center - Bay B2,47.816094,-122.296686,2b
2169,Ash Way & 164th St SW,47.850713,-122.260562,2b
2171,48th Ave W & 200th St SW,47.820559,-122.297724,2b
2177,Lynnwood Transit Center - Bay C4,47.815954,-122.296100,2b
2188,Brier Rd & 228th St SW,47.791042,-122.274386,2b
2194,27th Ave NE & Marine Dr,48.056421,-122.194871,2a
2195,27th Ave NE & 74th St NE,48.063671,-122.194816,2a
2196,27th Ave NE & 81st St NE,48.069446,-122.194715,2a
2198,27th Ave NE & 88th St NE,48.075606,-122.194845,2a
2199,27th Ave NE & 81st St NE,48.069510,-122.194917,2a
22,Seemann St & Fullerton Ave,48.255154,-121.608202,2a
2200,27th Ave NE & 74th St NE,48.063005,-122.195024,2a
2201,64th St NW & Joseph Charles Jr Loop,48.053755,-122.267635,2a
2202,Totem Beach Rd & 64th St NW,48.055420,-122.270868,2a
2203,Totem Beach Rd & Alphonsus Bob Loop Rd,48.059821,-122.275211,2a
2204,Totem Beach Rd & Tulalip Bay Dr,48.061817,-122.277868,2a
2205,76th Pl NW & Marine Dr,48.065654,-122.276855,2a
2207,220th St SE & 17th Ave SE,47.798660,-122.208469,2b
2208,20th Ave SE & 220th St SE,47.798816,-122.205767,2b
2209,223rd St SE & 23rd Dr SE,47.796057,-122.201714,2b
2211,29th Dr SE & 228th St SE,47.792645,-122.196111,2b
2212,228th St SE & 35th Ave SE,47.790802,-122.186684,2b
2213,35th Ave SE & 228th St SE,47.790914,-122.186487,2b
2214,35th Ave SE & Monte Villa Pkwy,47.779700,-122.185959,2b
2215,120th Ave NE & North Creek Pkwy N,47.774456,-122.180319,2b
2216,120th Ave NE & North Creek Pkwy N,47.774806,-122.180136,2b
2219,NE 185th St & 103rd Ave NE,47.761927,-122.202115,2b
2220,NE 185th St & Ross Rd,47.761890,-122.199882,2b
2221,228th St SE & 27th Ave SE,47.791183,-122.196796,2b
2222,228th St SE & 27th Ave SE,47.791320,-122.196649,2b
2225,20th St NE & Main St,48.015458,-122.063604,2a
2228,29th Dr SE & 228th St SE,47.792652,-122.195781,2b
2229,UW Bothell & Cascadia College,47.761605,-122.193030,1
2231,Village Wy & W Main St,47.850730,-121.986237,2a
2233,NE 195th St & North Creek Pkwy,47.768990,-122.183211,2b
2234,NE 195th St & North Creek Pkwy,47.769127,-122.183214,2b
2237,Hwy 99 & 224th St SW,47.796442,-122.333895,2b
226,194th St SW & 48th Ave W,47.822776,-122.297596,2b
227,194th St SW & 44th Ave W,47.822694,-122.293050,2b
2284,212th St SW & 78th Ave W,47.806976,-122.338971,2b
2290,5th Ave & Jefferson St,47.603114,-122.328759,1
23,State Ave & 92nd St NE,48.079483,-122.175034,2a
230,196th St SW & 64th Ave W,47.821155,-122.319287,2b
231,196th St SW & 68th Ave W,47.821235,-122.324480,2b
232,196th St SW & 74th Ave W,47.821367,-122.334967,2b
2325,Beardslee Blvd & Ross Rd,47.767967,-122.191103,1
2327,Boeing Gate E-72,47.925797,-122.280678,2
2328,Boeing Gate E-84,47.932338,-122.278613,2
233,196th St SW & 80th Ave W,47.821377,-122.340639,2b
2330,Boeing Gate E-88,47.931631,-122.265929,2
234,196th St SW & 84th Ave W,47.821404,-122.346262,2b
2340,27th Ave NE & 88th St NE,48.076233,-122.194657,2a
2342,Everett Station - Bay B2,47.974637,-122.197248,2
2344,Everett Station - Bay B4,47.974258,-122.197087,2
2345,Everett Station - Bay C1,47.974817,-122.197726,2
2347,Everett Station - Bay C3,47.974433,-122.197557,2
2349,2nd Ave Ext S & Yesler Way,47.601377,-122.331770,1
235,196th St SW & Heinz Pl,47.821305,-122.330491,2b
2350,I-405 & NE 195th St Flyer Stop,47.769142,-122.188648,1
2354,99th St NE & Quil Ceda Pkwy,48.085484,-122.188641,2a
2355,Wetmore Ave & Wall St,47.977193,-122.207275,2
2356,Pacific Ave & Rockefeller Ave,47.976649,-122.205550,2
2358,Quil Ceda Blvd & Quil Ceda Pkwy,48.077472,-122.186818,2a
2359,Pacific Ave & Rockefeller Ave,47.976526,-122.204832,2
236,196th St SW & Scriber Lake Rd,47.821089,-122.310609,2b
2365,Broadway & 34th St,47.972572,-122.201154,2
2367,Broadway & 34th St,47.972919,-122.201518,2
2368,Quil Ceda Blvd & Home Depot,48.080291,-122.185620,2a
237,196th St SW & Hwy 99,47.821099,-122.316378,2b
238,196th St SW & 86th Ave W,47.821374,-122.349396,2b
239,196th St SW & 58th Pl W,47.821096,-122.312441,2b
240,Marysville I P&R - Bay 1,48.050009,-122.182928,2a
2405,Hwy 99 & N 200th St,47.774764,-122.345951,2b
2406,228th St SW & Meridian Ave S,47.791358,-122.233999,2b
2407,228th St SW & 4th Ave W,47.791414,-122.237752,2b
2408,4th Ave W & 228th St SW,47.793175,-122.238304,2b
2409,4th Ave W & 224th St SW,47.795174,-122.238305,2b
241,Second St & Ave A,47.912800,-122.094124,2a
2410,4th Ave W & 224th St SW,47.794832,-122.238507,2b
2411,4th Ave W & 228th St SW,47.792238,-122.238494,2b
2418,N Broadway St & E Gilman Ave,48.199370,-122.125306,2a
242,Second St & Ave C,47.912871,-122.096899,2a
2422,Lynnwood Transit Center - Bay D3,47.815846,-122.296354,2b
2423,47th Pl W & 106th St SW,47.902540,-122.296652,2b
2424,47th Pl W & 106th St SW,47.902282,-122.296881,2b
2425,196th St SW & 30th Pl W,47.820773,-122.273955,2b
2426,196th St SW & 30th Pl W,47.820910,-122.274215,2b
2427,196th St SW & Alderwood Mall Pkwy,47.820891,-122.271303,2b
2428,196th St SW & 40th Ave W,47.820839,-122.286744,2b
2429,196th St SW & 36th Ave W,47.820970,-122.283739,2b
243,Second St & Maple Ave,47.912649,-122.088680,2a
2430,Alderwood Mall Pkwy & 196th St SW,47.821226,-122.270885,2b
2431,Alderwood Mall Pkwy & 184th St SW,47.831725,-122.268481,2b
2432,Alderwood Mall Pkwy & Maple Rd,47.835968,-122.271665,2b
2433,Alderwood Mall Pkwy & Maple Rd,47.835641,-122.271477,2b
244,Second St & Pine Ave,47.912586,-122.085901,2a
2440,Hewitt Ave & Lombard Ave,47.979298,-122.202753,2
2442,148th St SW & 35th Ave W,47.864096,-122.279772,2b
2443,148th St SW & 35th Ave W,47.864233,-122.279336,2b
2444,148th St SW & 29th Ave W,47.864107,-122.272422,2b
2445,148th St SW & Admiralty Wy,47.864251,-122.272931,2b
2446,148th St SW & Manor Wy,47.864052,-122.268497,2b
2447,148th St SW & Manor Wy,47.864198,-122.269067,2b
2448,Jefferson Wy & 21st Ave W,47.861992,-122.260429,2b
2449,Jefferson Wy & 19th Ave W,47.862083,-122.259270,2b
245,20th St NE & 112th Dr NE,48.015390,-122.079315,2a
2450,18th Ave W & 151st Pl SW,47.860699,-122.257717,2b
2451,18th Ave W & 152nd St SW,47.860134,-122.257921,2b
2452,18th Ave W & Oak Rd,47.857203,-122.257718,2b
2453,18th Ave W & Oak Rd,47.857285,-122.257924,2b
2454,18th Ave W & Ash Wy,47.855434,-122.257719,2b
2455,18th Ave W & Ash Wy,47.855451,-122.257919,2b
2456,134th St SW & Ash Wy,47.876803,-122.244352,2b
2457,134th St SW & Ash Wy,47.876937,-122.244624,2b
2458,Alderwood Mall Pkwy & 164th St SW,47.848958,-122.271060,2b
2459,Alderwood Mall Pkwy & 164th St SW,47.848114,-122.271240,2b
2460,Smokey Point Blvd & 174th Pl NE,48.154576,-122.182854,2a
2461,88th St NE & 36th Ave NE,48.075624,-122.182138,2a
2463,88th St NE & State Ave,48.075678,-122.176796,2a
2465,4th St & Beach Ave,48.051973,-122.181671,2a
2466,Wetmore Ave & Wall St,47.977741,-122.207098,2
2472,Marine Dr & Lakewood Rd,48.168012,-122.357683,2a
2473,State Ave & 116th St NE,48.100290,-122.175252,2a
2474,State Ave & 113th Pl NE,48.097672,-122.174525,2a
2475,120th Ave NE & NE 195th St,47.769801,-122.180055,2b
2476,120th Ave NE & NE 195th St,47.769859,-122.180260,2b
2477,State Ave & 136th St NE,48.117914,-122.181800,2a
2478,Smokey Point Blvd & 136th St NE,48.119126,-122.182024,2a
2479,State Ave & 106th Pl NE,48.091825,-122.173219,2a
248,20th St NE & 116th Ave NE,48.015561,-122.074142,2a
2480,State Ave & 105th Pl NE,48.090992,-122.173631,2a
2482,Smokey Point Blvd & 186th Pl NE,48.165780,-122.184816,2a
2483,52nd Ave W & Beverly Park Rd,47.865754,-122.303546,2b
2484,Airport Rd & W Casino Rd,47.920098,-122.271851,2
249,20th St NE & 118th Ave NE,48.015553,-122.071330,2a
2490,10th St & Ash Ave,48.057264,-122.183879,2a
250,Alderwood Mall Blvd & 44th Ave W,47.817259,-122.291386,2b
2503,30th Ave NE & 99th St NE,48.087502,-122.191411,2a
2508,67th Ave NE & Grove St,48.065032,-122.140675,2a
2509,67th Ave NE & 80th Pl NE,48.068806,-122.140366,2a
251,200th St SW & 53rd Pl W,47.817391,-122.304588,2b
2511,Quil Ceda Pkwy & Walmart,48.079828,-122.189707,2a
2512,67th Ave NE & 77th Pl NE,48.065590,-122.140832,2a
2513,67th Ave NE & 80th Pl NE,48.068740,-122.140577,2a
2514,67th Ave NE & 88th St NE,48.074251,-122.140111,2a
2515,99th St NE & Quil Ceda Pkwy,48.085622,-122.189901,2a
2517,Marysville Ash Ave P&R - Bay 1,48.053729,-122.183696,2a
252,200th St SW & 56th Ave W (farside),47.817397,-122.307951,2b
2520,Smokey Point Blvd & 182nd St NE,48.161694,-122.183004,2a
2521,47th Ave NE & 188th St NE,48.167140,-122.166777,2a
2522,47th Ave NE & 193rd Pl NE,48.172452,-122.166874,2a
2523,Cemetery Rd & Highclover Blvd NE,48.176706,-122.164369,2a
2524,Cemetery Rd & 53rd Ave NE,48.176843,-122.158637,2a
2525,204th St NE & 65th Dr NE,48.180952,-122.140037,2a
2526,47th Ave NE & 188th St NE,48.166954,-122.166977,2a
2527,47th Ave NE & 193rd Pl NE,48.172425,-122.167078,2a
2528,Cemetery Rd & 49th Ave NE,48.176573,-122.164218,2a
2529,Cemetery Rd & 53rd Ave NE,48.176700,-122.158929,2a
253,200th St SW & 64th Ave W,47.817547,-122.319232,2b
2530,Smokey Point Blvd & 186th Pl NE,48.165804,-122.184628,2a
2531,188th St NE & 35th Ave NE,48.166929,-122.183928,2a
2532,91st Ave NE & 11th Pl SE,47.985866,-122.108743,2a
2543,Lynnwood Transit Center - Bay D4,47.815848,-122.296024,2b
2544,Lynnwood Transit Center - Bay D5,47.815852,-122.295731,2b
255,200th St SW & 68th Ave W,47.817646,-122.324519,2b
2550,271st St NW & 88th Ave NW,48.242211,-122.352356,2a
2551,271st St NW & 92nd Ave NW,48.242200,-122.357733,2a
2552,271st St NW & 94th Dr NW,48.242191,-122.361131,2a
2553,271st St NW & 270th St NW,48.242174,-122.364640,2a
2554,272nd Pl NW & 100th Ave NW,48.243658,-122.367927,2a
2555,271st St NW & 101st Ave NW,48.242362,-122.369666,2a
2557,148th St SE & 51st Ave SE,47.863120,-122.163675,2b
2558,148th St SE & 51st Ave SE,47.863287,-122.164180,2b
2559,148th St SE & 48th Ave SE,47.863440,-122.167541,2b
2560,148th St SE & 48th Ave SE,47.863300,-122.167570,2b
2562,148th St SE & 35th Ave SE,47.863330,-122.186477,2b
2563,148th St SE & 35th Ave SE,47.863469,-122.186558,2b
2564,148th St SE & 30th Ave SE,47.863411,-122.190749,2b
2565,148th St SE & 30th Ave SE,47.863548,-122.190777,2b
2568,Mill Creek Road & Hwy 527,47.849473,-122.216645,2b
2569,S Stillaguamish Ave & Portage St,48.186022,-122.117849,2a
257,200th St SW & Cedar Valley Rd,47.817335,-122.299991,2b
2570,S Stillaguamish Ave & Portage St,48.186066,-122.118051,2a
2573,127th Ave NE & 18th St NE,48.013356,-122.059889,2a
2574,127th Ave NE & 20th St NE,48.013911,-122.060082,2a
2575,16th St NE & 18th St NE,48.011761,-122.060350,2a
2576,16th St NE & Main St,48.011795,-122.063599,2a
2577,16th St NE & Main St,48.011940,-122.063888,2a
2578,Village Wy & W Main St,47.850855,-121.986069,2a
2579,Main St & 18th St NE,48.013570,-122.064226,2a
258,200th St SW & Hwy 99,47.817507,-122.317236,2b
2580,Village Wy & Village Ct,47.848993,-121.983620,2a
2581,Village Wy & Village Ct,47.849101,-121.983793,2a
2582,Village Wy & Sky River Pkwy,47.849803,-121.980811,2a
2583,Village Wy & Sky River Pkwy,47.849985,-121.980705,2a
259,200th St SW & 56th Ave W (nearside),47.817407,-122.310170,2b
2598,154th St SE & Mulberry Dr,47.857852,-122.000365,2a
2599,154th St SE & Mulberry Dr,47.857720,-122.000639,2a
260,200th St SW & 60th Ave W,47.817460,-122.314739,2b
2602,Fryelands Blvd & 156th St SE,47.855779,-122.011859,2a
2603,Fryelands Blvd & 156th St SE,47.855352,-122.012061,2a
2606,Bickford Ave & Ridge Ave,47.935433,-122.104137,2a
2607,Bickford Ave & 19th Pl,47.935273,-122.104227,2a
2610,148th St SW & 22nd Ave W,47.863942,-122.262785,2b
2611,Marine Dr NE & 14th Ave NE,48.050476,-122.212142,2a
2612,Marine Dr NE & 14th Ave NE,48.050241,-122.212721,2a
2613,Marine Dr NE & 7th Ave NE,48.042392,-122.222471,2a
2614,Marine Dr NE & 7th Dr NW,48.038205,-122.242902,2a
2615,Marine Dr NE & 7th Dr NW,48.038346,-122.243523,2a
2616,Marine Dr NE & 19th Ave NE,48.053060,-122.206065,2a
2617,36th Ave W & Maple Rd,47.835919,-122.281555,2b
2618,76th Ave W & 239th Pl SW,47.782292,-122.335264,2b
2619,172nd St NE & 19th Dr NE,48.151964,-122.207280,2a
262,Alderwood Mall Blvd & 40th Ave W,47.817533,-122.287299,2b
2621,137th St SE & Puget Park Dr,47.873355,-122.153770,2b
2622,E Stanley St & S Indiana Ave,48.083352,-121.965755,2a
2623,188th St NE & 46th Ave NE,48.166931,-122.168690,2a
2624,47th Ave NE & 191st Pl NE,48.169240,-122.167028,2a
2625,47th Ave NE & 191st Pl NE,48.169319,-122.166826,2a
2626,204th St NE & 74th Ave NE,48.180778,-122.131682,2a
2627,204th St NE & 74th Ave NE,48.180917,-122.131804,2a
2628,E Stanley St & N Kentucky Ave,48.083489,-121.965799,2a
263,204th St SW & 23rd Ave W,47.813398,-122.263833,2b
2631,2nd Ave & Cherry St,47.603054,-122.333306,1
2638,4th Ave & Cherry St,47.604400,-122.331269,1
264,204th St SW & 30th Ave W,47.813510,-122.273460,2b
2641,148th St SW & 40th Ave W,47.864095,-122.287632,2b
2642,148th St SW & 40th Ave W,47.864230,-122.287815,2b
2644,236th St SW & 59th Pl SW,47.784880,-122.313092,2b
2645,Hwy 527 & 136th St SE,47.874531,-122.214401,2b
2646,Hwy 527 & Trillium Blvd SE,47.871495,-122.217160,2b
2647,Hwy 527 & 144th St SE,47.868226,-122.218136,2b
2648,Hwy 527 & 153rd St SE,47.859649,-122.218876,2b
265,204th St NE & 67th Ave NE,48.180813,-122.139951,2a
2650,Hwy 527 & Dumas Rd,47.873916,-122.215358,2b
2651,Hwy 527 & Heatherwood Dr,47.870776,-122.217895,2b
2652,Hwy 527 & 153rd St SE,47.858891,-122.218966,2b
2653,Hwy 527 & Mill Creek Blvd,47.854590,-122.218411,2b
266,204th St NE & 71st Ave NE,48.180809,-122.136454,2a
2661,244th St SW & Hwy 99,47.777856,-122.343763,2b
2662,212th St SW & 74th Ave W,47.806795,-122.331505,2b
2663,44th Ave W & 198th St SW,47.818509,-122.292289,2b
2665,Lake Stevens TC - Bay 1,47.999318,-122.104484,2a
2666,Lake Stevens TC - Bay 2,47.999772,-122.104131,2a
2668,Airport Rd & 94th St SW,47.913776,-122.271785,2
2669,4th St NE & 97th Dr NE,47.999717,-122.100674,2a
267,204th St NE & 77th Ave NE,48.180764,-122.126081,2a
2670,99th Ave NE & 4th St NE,47.998671,-122.098271,2a
2671,Market Pl & 99th Ave NE,47.996303,-122.099173,2a
2673,220th St SW & 64th Ave W,47.799520,-122.318520,2b
2675,105th St NE & 30th Ave NE,48.090778,-122.192336,2a
2676,33rd Ave W & Alderwood Mall Blvd,47.823759,-122.277657,2b
2677,33rd Ave W & 188th St SW (nearside),47.826769,-122.277680,2b
2678,33rd Ave W & 188th St SW (farside),47.827471,-122.277883,2b
2679,33rd Ave W & Alderwood Mall Blvd,47.823756,-122.277861,2b
268,204th St SW & Poplar Wy,47.813505,-122.278426,2b
269,204th St SW & Larch Wy,47.813580,-122.286146,2b
2690,State Ave & 100th St NE,48.086076,-122.172296,2a
2697,148th St SW & Hwy 525,47.864100,-122.277552,2b
2698,5th Ave & Pine St,47.611700,-122.336613,1
270,N 205th St & Fremont Ave N,47.777685,-122.351300,2b
2700,5th Ave & Seneca St,47.608237,-122.333447,1
2704,Hwy 522 & 132nd Ave NE Flyer Stop,47.757517,-122.164610,2b
2705,Hwy 522 & 132nd Ave NE Flyer Stop,47.758791,-122.164513,2b
2706,5th Ave S & S Jackson St,47.598995,-122.327773,1
271,N 205th St & 91st Ave W,47.777682,-122.355417,2b
2712,5th Ave & Cherry St,47.604458,-122.329985,1
2713,44th Ave W & 196th St SW,47.820124,-122.292501,2b
272,N 205th St & Hwy 99,47.777717,-122.343719,2b
2721,88th St NE & 36th Ave NE,48.075733,-122.180578,2a
2724,I-405 & NE 195th St Flyer Stop,47.767849,-122.190192,2b
2725,148th St SE & Seattle Hill Rd,47.863510,-122.178874,2b
2726,148th St SE & 42nd Dr SE,47.863542,-122.175497,2b
2727,Dayton St & 2nd Ave S,47.809631,-122.381962,2b
2728,State Ave & 128th St NE,48.110883,-122.179078,2a
2729,State Ave & 128th St NE,48.111053,-122.179344,2a
273,N 205th St & Greenwood Ave N,47.777691,-122.358021,2b
2733,52nd Ave W & 154th St SW,47.858898,-122.303576,2b
2736,Canyon Park Fwy Station - Bay 3,47.793748,-122.214068,2b
2737,33rd Ave W & 188th St SW (nearside),47.828365,-122.277879,2b
2739,Quil Ceda Pkwy & Quil Ceda Blvd,48.077504,-122.188967,2a
274,N 205th St & Whitman Ave N,47.777717,-122.347400,2b
2742,Aurora Village Terminal - Bay 9,47.774369,-122.341022,2b
2744,NE 185th St & 101st Ave NE,47.761725,-122.205261,2b
2745,NE 185th St & 101st Ave NE,47.761839,-122.205513,2b
2746,Hwy 527 & NE 190th St,47.766289,-122.210096,2b
2747,238th St SW NB Station,47.783526,-122.343160,2b
2748,238th St SW SB Station,47.782840,-122.344014,2b
2749,228th St SE & 10th Ave SE,47.791353,-122.218720,2b
2750,228th St SE & 10th Ave SE,47.791215,-122.218533,2b
2751,228th St SE & 9th Ave SE,47.791340,-122.221124,2b
2752,228th St SE & 9th Ave SE,47.791203,-122.220917,2b
2753,Gateway NB Station & 216th St SW,47.803532,-122.328728,2b
2754,216th St SW SB Station,47.802846,-122.329608,2b
2755,72nd Ave W & 210th St SW,47.808497,-122.330076,2b
2756,72nd Ave W & 210th St SW,47.808357,-122.330276,2b
2757,228th St SE & 4th Ave SE,47.791330,-122.226690,2b
2758,228th St SE & 4th Ave SE,47.791196,-122.225950,2b
2759,228th St SE & Meridian Ave S,47.791236,-122.232559,2b
2761,Heron NB Station & 200th St SW,47.817834,-122.317836,2b
2762,Smokey Point Blvd & 152nd St NE,48.133971,-122.183326,2a
2763,228th St SW & 45th Pl W,47.791811,-122.293906,2b
2764,Crossroads SB Station & 196th St SW,47.820833,-122.315601,2b
2765,Mountlake Terrace FS - Bay 6,47.787241,-122.316390,2b
2766,Mountlake Terrace FS - Bay 7,47.787553,-122.316298,2b
2767,Cherry Hill NB Station & 176th St SW,47.839627,-122.298972,2b
2768,Everett Station - Bay A4,47.974353,-122.197126,2
277,208th St SW & 72nd Ave W,47.810431,-122.329396,2b
2770,International SB Station & 174th Pl SW,47.840822,-122.298310,2b
2771,48th Ave W & 228th St SW,47.791806,-122.297564,2b
2774,228th St SW & 46th Ave W,47.791963,-122.294899,2b
2775,Brier Rd & 232nd St SW (farside),47.787908,-122.274376,2b
2776,236th St SW & Brier Rd,47.784308,-122.273340,2b
2777,148th St SW NB Station,47.863939,-122.281985,2b
2778,148th St SW SB Station,47.863799,-122.282486,2b
2779,Lincoln Way NB Station,47.873356,-122.273217,2b
2780,Lincoln Way SB Station,47.872671,-122.274245,2b
2781,Airport Road NB Station,47.889553,-122.258079,2b
2782,Airport Road SB Station,47.889218,-122.258750,2b
2783,112th St SW NB Station,47.896827,-122.251258,2
2784,112th St SW SB Station,47.895993,-122.252430,2
2787,4th Ave W NB Station,47.909703,-122.239254,2
2788,4th Ave W SB Station,47.909981,-122.239400,2
2795,Casino Road NB Station,47.921169,-122.228519,2
2796,Casino Road SB Station,47.921297,-122.228833,2
28,W Main St & 179th Ave SE,47.850712,-121.990917,2a
2807,Madison St NB Station,47.936525,-122.218709,2
2810,Pecks Dr SB Station,47.941408,-122.217799,2
2815,50th St NB Station,47.952078,-122.213407,2
2816,50th St SB Station,47.951656,-122.213869,2
2819,40th St NB Station,47.964907,-122.210680,2
2820,41st St SB Station,47.962880,-122.210944,2
283,212th St SW & 80th Ave W,47.806849,-122.340888,2b
2835,Colby Ave NB Station,47.976469,-122.207987,2
2836,Wetmore Ave SB Station,47.976620,-122.206790,2
2837,Everett Station,47.973449,-122.197045,2
2838,Everett Station Terminal - Bay G1,47.973453,-122.196747,2
284,212th St SW & 84th Ave W,47.806865,-122.346347,2b
2846,N Olympic Ave & E 5th St,48.197405,-122.126438,2a
2847,N Olympic Ave & E 3rd St,48.194616,-122.126540,2a
2849,N Olympic Ave & E 5th St,48.197484,-122.126235,2a
2850,I-405 & Totem Lake Fwy Station,47.715140,-122.185443,1
2851,I-405 & Totem Lake Fwy Station,47.715689,-122.186099,1
2856,NE 10th St & 102nd Ave NE,47.619216,-122.204610,1
2857,NE 8th St & 106th Ave NE,47.617497,-122.199532,1
2858,NE 8th St & 102nd Ave NE,47.617566,-122.204794,1
286,212th St SW & 77th Pl W,47.806834,-122.337908,2b
2860,Bellevue Transit Center - Bay 8,47.615493,-122.194463,1
2861,Everett Station,47.974256,-122.197487,2
2862,244th St SW & 1st Ave NE,47.777685,-122.330269,2b
2863,Hwy 527 & 186th Pl SE,47.827947,-122.209128,2b
2864,Darrington St & Givens Ave,48.249831,-121.603943,2a
2865,W Main St & 174th Dr SE,47.850338,-121.997589,2a
2866,W Main St & 174th Dr SE,47.850479,-121.997180,2a
2867,South Everett Fwy Station - Bay 2,47.899298,-122.214222,2
2868,South Everett Fwy Station - Bay 3,47.899047,-122.214350,2
2869,South Everett Fwy Station - Bay 6,47.899546,-122.214106,2
2871,Beverly Park Rd & Picnic Point Rd,47.870382,-122.296041,2b
2872,164th St SW & 36th Ave W,47.849959,-122.281276,2b
2873,164th St SW & 36th Ave W,47.850085,-122.280192,2b
2875,Aurora Village TC - Bay 5,47.774468,-122.341387,2b
2876,Aurora Village TC - Bay 7,47.774359,-122.341770,2b
2877,Aurora Village TC,47.774462,-122.342021,2b
288,220th St SE & 17th Ave SE,47.798549,-122.208364,2b
2882,Cedar and Grove P&R,48.061214,-122.179520,2a
2883,Cedar and Grove P&R - Bay 1,48.061214,-122.179524,2a
2888,Smokey Point Blvd & 142nd St NE,48.126317,-122.183764,2a
2889,Smokey Point Blvd & 147th St NE,48.130789,-122.183226,2a
289,220th St SW & 54th Ave W,47.799207,-122.305631,2b
2890,Smokey Point Blvd & 142nd St NE,48.125732,-122.184044,2a
2891,Smokey Point Blvd & 147th St NE,48.129390,-122.183575,2a
290,220th St SW & 66th Ave W,47.799402,-122.321451,2b
2903,NE 185th St & Beardslee Blvd,47.762022,-122.197579,2b
2904,NE 185th St & 103rd Ave NE,47.762057,-122.202269,2b
2905,Boeing Perimeter Rd & Seaway Blvd,47.932563,-122.261096,2
2906,Cedar St & Hewitt Ave,47.978747,-122.193963,2
2909,2nd Ave & Seneca St,47.606187,-122.336105,1
291,220th St SW & 76th Ave W,47.799583,-122.335256,2b
2914,NE 10th St & 108th Ave NE,47.619251,-122.196902,1
2915,Edmonds Station,47.811793,-122.383330,2b
2916,Edmonds Station - Bay 1,47.812313,-122.382604,2b
2917,Edmonds Station - Bay 2,47.812016,-122.383027,2b
2918,Edmonds Station - Bay 3,47.811793,-122.383330,2b
2921,220th St SW & 56th Ave W,47.799224,-122.307886,2b
2922,220th St SW & 55th Ave W,47.799359,-122.306978,2b
2923,Marine Dr & Lakewood Rd,48.167633,-122.357471,2a
2925,Olympic View Dr & 180th St SW,47.836662,-122.325062,2b
2926,Olympic View Dr & 181st Pl W,47.833733,-122.328101,2b
2927,Olympic View Dr & 73rd Ave W,47.830510,-122.333208,2b
2928,Olympic View Dr & 73rd Ave W,47.830788,-122.333489,2b
2929,Olympic View Dr & 181st Pl W,47.833814,-122.328189,2b
2930,Olympic View Dr & 180th St SW,47.836879,-122.325056,2b
2931,Olympic View Dr & 76th Ave W,47.831459,-122.337104,2b
2932,76th Ave W & 190th St SW,47.826258,-122.336241,2b
2933,76th Ave W & 196th St SW,47.821805,-122.335794,2b
2934,76th Ave W & 190th St SW,47.826171,-122.335958,2b
2935,76th Ave W & Olympic View Dr,47.830994,-122.337657,2b
2936,276th St NW & 73rd Ave NW,48.246564,-122.332296,2a
2937,Seattle Hill Rd & 32nd Ave SE,47.858685,-122.191114,2b
2938,Seattle Hill Rd & 32nd Ave SE,47.858993,-122.190323,2b
2939,276th St NW & 74th Ave NW,48.246727,-122.333446,2a
2940,Trillium Blvd SE & 142nd Pl SE,47.869361,-122.211149,2b
2941,Trillium Blvd SE & 14th Dr SE,47.870921,-122.212735,2b
2942,Trillium Blvd SE & Hwy 527,47.870865,-122.216919,2b
2943,Trillium Blvd SE & 14th Dr SE,47.870816,-122.213050,2b
2944,Trillium Blvd SE & 142nd Pl SE,47.869115,-122.211102,2b
2945,Trillium Blvd SE & 144th Pl SE,47.867510,-122.209751,2b
2946,88th St NE & 67th Ave NE,48.074504,-122.140531,2a
2947,88th St NE & 61st Dr NE,48.074731,-122.147099,2a
2948,88th St NE & 57th Dr NE,48.074966,-122.153335,2a
2949,88th St NE & State Ave,48.075502,-122.174787,2a
2950,88th St NE & 51st Ave NE,48.075321,-122.161781,2a
2951,Beech Rd & 184th St SW,47.830786,-122.265254,2b
2952,184th St SW & Alderwood Mall Pkwy,47.831857,-122.266921,2b
2955,76th Pl NW & Marine Dr,48.065821,-122.276692,2a
2956,Totem Beach Rd & 76th Pl NW,48.065177,-122.278654,2a
2957,Totem Beach Rd & 76th Pl NW,48.065057,-122.278814,2a
2958,Hwy 527 & 240th St SE (farside),47.779534,-122.219071,2b
2959,276th St NW & Cedarhome Rd,48.246741,-122.341460,2a
2960,72nd Ave NW & Tyler Pl NW,48.245533,-122.330448,2a
2961,72nd Ave NW & 272nd St NW,48.242827,-122.330426,2a
2962,72nd Ave NW & Tyler Pl NW,48.245360,-122.330233,2a
2963,72nd Ave NW & 272nd St NW,48.243246,-122.330209,2a
2964,Marine Dr & Warm Beach Senior Ctr,48.182001,-122.350841,2a
2965,Marine Dr & Warm Beach Senior Ctr,48.181875,-122.351243,2a
2966,Mill Creek Rd & Village Green Dr,47.851760,-122.208266,2b
2967,Mill Creek Rd & Village Green Dr,47.852047,-122.208326,2b
2968,Seattle Hill Rd & 2600 Block,47.854988,-122.196268,2b
2969,Seattle Hill Rd & 2600 Block,47.855245,-122.196141,2b
297,220th St SW & 58th Ave W,47.799404,-122.311607,2b
2970,204th St SW & Larch Wy,47.813724,-122.287159,2b
2974,196th St SW & 48th Ave W,47.820960,-122.297414,2b
2975,196th St SW & 48th Ave W,47.821112,-122.298436,2b
2976,4th Ave & Pike St,47.610948,-122.337260,1
2977,Boeing Gate E-68,47.916190,-122.276065,2
298,220th St SW & 70th Ave W,47.799500,-122.328266,2b
2981,Ash Way P&R,47.852872,-122.258288,2b
2986,Hewitt Ave & Fulton St,47.979195,-122.195502,2
2987,Bickford Ave & Fobes Rd,47.945000,-122.110420,2a
2988,Bickford Ave & 62nd Pl SE,47.942269,-122.108492,2a
2989,Bickford Ave & 30th St,47.943719,-122.109295,2a
2993,Ash Wy & 153rd St SW,47.858967,-122.253477,2b
2994,Ash Wy & 149th St SW,47.863124,-122.249903,2b
2995,Ash Wy & 141st Pl SW,47.870060,-122.247289,2b
2997,Ash Wy & 135th St SW,47.875454,-122.247494,2b
2998,Ash Wy & 140th St SW,47.871286,-122.247494,2b
2999,Ash Wy & 149th St SW,47.862850,-122.250319,2b
3000,Ash Wy & 153rd Pl SW,47.857772,-122.254727,2b
3001,Cedar and Grove P&R - Bay 2,48.061193,-122.179871,2a
3004,Ash Wy & 137th St SW,47.873800,-122.247290,2b
3006,Cedar St & Hewitt Ave,47.978753,-122.193759,2
301,223rd St SE & 23rd Dr SE,47.795922,-122.201556,2b
3016,132nd St SE & 21st Dr SE,47.878034,-122.203082,2b
303,228th St SE & 15th Ave SE,47.791247,-122.212764,2b
304,228th St SW & 32nd Ave W,47.791770,-122.276249,2b
305,228th St SW & 35th Ave W,47.791702,-122.279889,2b
3058,35th Ave SE & Seattle Hill Rd,47.860051,-122.186244,2b
3059,35th Ave SE & Seattle Hill Rd,47.861093,-122.185982,2b
306,228th St SW & 66th Ave W,47.792118,-122.321754,2b
3060,Marine Dr NE & 31st Ave NE,48.054007,-122.188967,2a
3063,20th Ave SE & 214th St SE,47.802742,-122.206302,2b
3064,Fryelands Blvd & 161st St SE,47.851943,-122.011861,2a
3065,Fryelands Blvd & 161st St SE,47.851535,-122.012105,2a
3066,154th St SE & 168th Ave SE,47.857720,-122.005234,2a
3067,154th St SE & 167th Ave SE,47.857888,-122.007809,2a
3068,N Kelsey St & Blueberry Ln SE,47.859751,-121.977381,2a
3069,N Kelsey St & W Columbia St,47.855869,-121.977320,2a
307,228th St SW & 76th Ave W,47.792300,-122.335098,2b
3070,N Kelsey St & W Main St,47.854432,-121.977113,2a
3071,N Kelsey St & W Hill St,47.856387,-121.977115,2a
3072,Seaway Blvd & Fluke Drwy,47.934944,-122.261733,2
308,228th St SE & Hwy 527,47.791209,-122.216075,2b
309,228th St SW & 38th Pl W,47.791685,-122.283359,2b
310,228th St SW & 39th Pl W,47.791734,-122.286893,2b
311,228th St SW & 72nd Pl W,47.792227,-122.330827,2b
312,228th St SW & 42nd Pl W,47.791764,-122.289872,2b
313,230th St SW & 59th Ave W,47.790201,-122.313118,2b
318,236th St SW & 48th Ave W,47.784579,-122.297262,2b
319,236th St SW & 52nd Ave W,47.784642,-122.302646,2b
32,134th Pl SE & 54th Ave SE,47.877379,-122.157928,2b
320,236th St SW & 54th Ave W,47.784664,-122.305401,2b
321,236th St SW & 56th Ave W,47.784679,-122.307830,2b
322,236th St SW & 58th Ave W,47.784772,-122.311470,2b
324,236th St SW & 50th Ave W,47.784605,-122.300599,2b
325,Mountlake Terrace TC - Bay 4,47.784851,-122.315309,2b
326,238th St SW & Edmonds Wy,47.783141,-122.350463,2b
327,238th St SW & 84th Ave W,47.783157,-122.347018,2b
328,238th St SW & Hwy 99,47.783169,-122.344236,2b
332,Stanwood II Park & Ride - Bay 2,48.239204,-122.349780,2a
333,271st St NW & 94th Dr NW,48.242054,-122.360692,2a
334,271st St NW & 90th Ave NW,48.242074,-122.353341,2a
335,271st St NW & 92nd Ave NW,48.242062,-122.358012,2a
336,271st St NW & 96th Ave NW,48.242049,-122.363307,2a
340,276th St NW & 78th Ave NW,48.246622,-122.339010,2a
342,64th St NE & 47th Ave NE,48.051712,-122.167425,2a
343,4th St & Columbia Ave,48.051779,-122.175099,2a
344,4th St & Quinn Ave,48.051737,-122.171654,2a
348,NE 45th St & 7th Ave NE,47.661256,-122.320999,1
349,NE 45th St & Roosevelt Wy NE,47.661225,-122.317235,1
350,NE 45th St & University Wy NE,47.661236,-122.313425,1
355,Bellevue Transit Center - Bay 4,47.615571,-122.195057,1
356,64th St NE & 65th Dr NE,48.053613,-122.142848,2a
357,64th St NE & 56th Dr NE,48.053821,-122.155019,2a
358,64th St NE & 55th Dr NE,48.053859,-122.156492,2a
359,64th St NE & 60th Dr NE,48.053743,-122.149202,2a
36,Pioneer Hwy & 77th Ave NW,48.234131,-122.337503,2a
369,92nd St SE & 113th Dr SE,47.913200,-122.078440,2a
37,N 200th St & Burke Ave N,47.774108,-122.336914,2b
370,Alderwood Mall Blvd & 28th Ave W,47.826325,-122.270693,2b
371,Alderwood Mall Blvd & 33rd Ave W,47.822706,-122.277449,2b
372,Beardslee Blvd & 108th Ave NE,47.762195,-122.195974,2b
374,Beardslee Blvd & Sunrise Dr,47.760586,-122.200287,1
375,Beardslee Blvd & 110th Ave NE,47.763407,-122.194163,2b
38,Meridian Ave N & N 203rd St,47.776088,-122.335190,2b
384,E Burke Ave & Manhattan St,48.200183,-122.121500,2a
39,Meridian Ave N & N 205th St,47.777379,-122.335419,2b
399,Caspers St & 7th Ave N,47.817694,-122.371305,2b
40,Meridian Ave N & N 203rd St,47.775638,-122.335393,2b
400,Caspers St & 8th Ave N,47.817693,-122.369188,2b
401,Chennault Beach Rd & Harbour Pointe Blvd,47.897754,-122.303803,2b
402,Chennault Beach Rd & Harbour Reach Dr,47.895117,-122.299896,2b
406,Dayton St & 5th Ave S,47.809626,-122.377314,2b
408,W Dayton St & Edmonds Wy,47.809646,-122.384715,2b
41,N 200th St & Burke Ave N,47.774244,-122.336723,2b
426,Hewitt Ave & Lombard Ave,47.979167,-122.202966,2
427,Hewitt Ave & Virginia Ave,47.979077,-122.196940,2
430,Howell St & 9th Ave,47.614752,-122.333262,1
431,Howell St & Yale Ave,47.617874,-122.329203,1
432,Harbour Pointe Blvd SW & 52nd Pl W,47.886059,-122.304098,2b
433,Harbour Pointe Blvd SW & Blue Heron Blvd,47.886419,-122.298027,2b
435,Harbour Pointe Blvd SW & Harbour Reach Dr,47.887060,-122.294184,2b
436,Larch Wy & Cypress Wy,47.808061,-122.258940,2b
439,Lewis Ave & 3rd St,47.857641,-121.698966,2a
440,Lewis Ave & 7th St,47.855369,-121.694594,2a
441,Lake View Dr & Cedar Rd,48.015255,-122.083884,2a
442,Lakewood Rd & W Lake Goodwin Rd,48.155698,-122.297512,2a
443,Lakewood Rd & 176th Pl NW,48.156355,-122.244567,2a
444,Lakewood Rd & 184th St NW,48.163092,-122.335673,2a
445,Lakewood Rd & 188th St NW,48.166790,-122.347864,2a
446,Lakewood Rd & 31st Dr NW,48.155519,-122.274802,2a
447,Lakewood Rd & 65th Dr NW,48.160790,-122.325881,2a
448,Lakewood Rd & 172nd St NW,48.152230,-122.239046,2a
449,Lakewood Rd & 60th Ave NW,48.158985,-122.314674,2a
450,Lakewood Rd & E Lake Goodwin Rd,48.155595,-122.287060,2a
451,Lakewood Rd & 53rd Dr NW,48.155816,-122.306309,2a
452,Lakewood Rd & Lake Ki,48.156562,-122.261562,2a
453,Logan Rd & Locust Wy,47.808400,-122.253715,2b
454,Lundeen Pkwy & Hwy 9,48.013187,-122.107657,2a
455,Lundeen Pkwy & Vernon Rd,48.017809,-122.090816,2a
456,Lundeen Pkwy & 101st Ave NE,48.017804,-122.094722,2a
457,Main St & 7th Ave N,47.810461,-122.372735,2b
458,W Main St & 179th Ave SE,47.850631,-121.990259,2a
459,Main St & 8th Ave S,47.810462,-122.369181,2b
460,Main St & 9th Ave S,47.810454,-122.366299,2b
461,Main St & Hillcrest Pl,47.810441,-122.354124,2b
466,Main St & 12th Ave N,47.810423,-122.359199,2b
467,Main St & Olympic Ave,47.810441,-122.361333,2b
468,Main St & 86th Pl W,47.810431,-122.350591,2b
469,Market Pl & 91st Ave NE,47.997871,-122.107945,2a
470,Monte Villa Pkwy & 35th Ave SE,47.778084,-122.181247,2b
473,Olive Wy & 6th Ave,47.613034,-122.336477,1
476,Olive Wy & Terry Ave,47.614932,-122.331880,1
477,Pioneer Hwy & 77th Ave NW,48.234054,-122.337714,2a
478,Puget Dr & Olympic View Dr,47.821419,-122.363472,2b
479,Seattle Hill Rd & 25th Ave SE,47.852691,-122.199438,2b
480,Seattle Hill Rd & Seattle Hill Rd,47.851112,-122.205128,2b
481,Seattle Hill Rd & 35th Ave SE,47.860192,-122.186554,2b
482,Seattle Hill Rd & 2900 Block,47.856262,-122.193580,2b
483,Seemann St & Givens Ave,48.255209,-121.603313,2a
486,Smokey Point Transit Ctr - Bay 2,48.154788,-122.183724,2a
487,Edmonds Wy & 100th Ave W,47.790437,-122.366318,2b
488,Edmonds Wy & 102nd Pl W,47.792114,-122.369655,2b
489,Edmonds Wy & 232nd Pl SW,47.788323,-122.354611,2b
490,N 205th St & Meridian Ave N,47.777677,-122.334882,2b
491,Edmonds Wy & 236th St SW,47.784091,-122.352892,2b
492,NE 205th St & 6th Ave NE,47.777583,-122.323192,2b
493,Edmonds Wy & 95th Pl W,47.791746,-122.360294,2b
497,Hwy 520 & Evergreen Point Fwy Stn,47.636737,-122.236293,1
498,Hwy 520 & Montlake Fwy Station,47.644068,-122.304354,1
499,Hwy 530 & Ramstad Rd (nearside),48.268395,-121.960927,2a
500,Hwy 530 & E Post Rd,48.277057,-121.813616,2a
501,Hwy 530 & 379th Ave NE,48.268677,-121.719344,2a
502,Hwy 530 & French Creek Rd,48.278413,-121.763453,2a
504,Hwy 530 & 103rd Ave NE,48.226042,-122.092593,2a
505,Hwy 530 & 115th Ave NE,48.232278,-122.074476,2a
506,Hwy 530 & 119th Ave NE,48.234030,-122.069122,2a
507,Hwy 530 & 171st Ave NE (nearside),48.270556,-122.003802,2a
508,Hwy 530 & 179th Ave NE,48.273586,-121.984458,2a
509,Hwy 530 & Oso Loop Rd,48.270651,-121.931495,2a
510,Hwy 530 & 304th St NE,48.273527,-121.914694,2a
511,Hwy 530 & Swede Heaven Rd,48.268648,-121.705879,2a
513,Hwy 530 & Jim Creek Rd,48.236336,-122.061454,2a
514,Hwy 530 & Lake Cavanaugh Rd,48.270192,-121.934191,2a
515,Hwy 530 & Oso Loop Rd,48.272113,-121.899896,2a
516,Hwy 530 & Ramstad Rd (farside),48.268773,-121.954574,2a
517,Hwy 530 & Tom Creek Rd,48.269066,-121.727189,2a
518,Hwy 530 & Arlington Heights Rd,48.204846,-122.117429,2a
519,Hwy 530 & 294th St NE,48.264758,-122.020098,2a
520,Hwy 530 & Boulder Creek Dr,48.278716,-121.772646,2a
521,Hwy 530 & 139th Ave NE,48.247424,-122.041872,2a
522,Hwy 530 & 310th St NE,48.276776,-121.797786,2a
523,Hwy 530 & 411th Ave NE,48.269131,-121.675928,2a
524,Hwy 530 & Hillis Rd,48.268618,-122.009145,2a
525,Hwy 530 & Squire Creek Rd,48.270764,-121.669766,2a
526,Hwy 530 & Powerline Rd,48.263124,-121.633810,2a
527,Hwy 530 & 171st Ave NE(Cicero Pk),48.273227,-121.999419,2a
528,Hwy 530 & Whitman Rd,48.271592,-121.889143,2a
529,Hwy 530 & 350th Dr NE,48.277999,-121.757228,2a
531,Stanwood I P&R - Bay 1,48.238814,-122.243223,2a
532,Hwy 92 & 127th Dr NE,48.032026,-122.058734,2a
533,Hwy 92 & 147th Ave NE,48.051628,-122.032645,2a
534,Hwy 92 & 44th St NE,48.036201,-122.049529,2a
536,Hwy 92 & 64th St NE,48.057516,-122.026442,2a
537,Hwy 92 & Crooked Mile Rd,48.079229,-122.001042,2a
538,Hwy 92 & 161st Ave NE,48.067392,-122.015365,2a
539,Hwy 92 & 44th St NE (farside),48.039643,-122.045592,2a
540,Hwy 92 & 75th St NE,48.062954,-122.020310,2a
541,Hwy 92 & 84th St NE,48.071510,-122.009961,2a
543,W Stanley St & Portage Ave,48.083216,-121.974487,2a
544,W Stanley St & Cascade Ave,48.083258,-121.970863,2a
545,E Stevens Wy NE & Memorial Wy NE,47.659742,-122.308792,1
546,Terrace St & 5th Ave,47.602066,-122.328352,1
548,Sultan P&R - Bay 2,47.863020,-121.804165,2a
549,Hwy 2 & 179th Ave SE,47.865487,-121.990432,2a
550,Hwy 2 & 339th Ave SE,47.867903,-121.777323,2a
551,Hwy 2 & 363rd Ave SE,47.867122,-121.745146,2a
552,Hwy 2 & Fryelands Blvd SE,47.872153,-122.007305,2a
553,Hwy 2 & N Kelsey St,47.860702,-121.976934,2a
554,Hwy 2 & E Main St,47.857689,-121.963611,2a
555,Hwy 2 & Sofie Rd,47.855666,-121.926085,2a
556,Hwy 2 & Woods Creek Rd SE,47.858178,-121.965760,2a
557,Hwy 2 & N Lewis St,47.858996,-121.969498,2a
558,Hwy 2 & Fern Bluff Rd,47.858112,-121.830296,2a
560,Hwy 2 & 368th Dr SE,47.867115,-121.737746,2a
563,Hwy 2 & Roosevelt Rd (West),47.900713,-122.036759,2a
564,Hwy 2 & Westwick Rd,47.905622,-122.043573,2a
567,Yesler Wy & 2nd Ave S,47.601695,-122.331130,1
570,1st St & Hwy 2,47.857646,-121.701936,2a
575,100th Ave W & 237th Pl SW,47.784391,-122.366294,2b
576,100th Ave W & 232nd St SW,47.788485,-122.366687,2b
581,Main St & 18th St NE,48.014113,-122.064034,2a
584,15th Ave NE & NE 42nd St,47.658656,-122.311943,1
585,179th Ave SE & 147th St SE,47.864535,-121.990545,2a
586,179th Ave SE & Grand St SE,47.855186,-121.990516,2a
587,179th Ave SE & W Main St,47.851027,-121.990455,2a
588,179th Ave SE & 154th St SE,47.857461,-121.990526,2a
589,179th Ave SE & Stanton St,47.860076,-121.990572,2a
595,209th St NE & Keith Ln,48.182574,-122.122416,2a
597,23rd Ave SE & 171st Pl SE,47.842859,-122.201712,2b
603,29th Ave W & 232nd St SW,47.788631,-122.271865,2b
604,29th Ave W & 228th St SW,47.790408,-122.271870,2b
605,3rd Ave N & 4th Ave N,47.815397,-122.376167,2b
606,3rd Ave N & Bell St,47.812593,-122.378514,2b
607,3rd Ave N & Giltner Ln,47.817221,-122.374694,2b
608,3rd Ave N & Daley St,47.813658,-122.377629,2b
609,3rd Ave S & James St,47.810431,-122.380240,2b
610,33rd Ave W & 188th St SW (farside),47.829925,-122.277670,2b
611,35th Ave W & 156th St SW,47.858930,-122.280268,2b
612,35th Ave SE & 156th St SE,47.856501,-122.186861,2b
613,35th Ave W & 158th St SW,47.855608,-122.280167,2b
614,35th Ave W & 148th St SW,47.863365,-122.280367,2b
615,35th Ave SE & 164th St SE,47.848614,-122.186504,2b
616,36th Ave W & 166th Pl SW,47.847797,-122.281782,2b
617,36th Ave W & 172nd St SW,47.843022,-122.281725,2b
619,36th Ave W & 184th St SW (farside),47.832292,-122.281527,2b
623,36th Ave W & 176th Pl SW,47.838910,-122.281663,2b
624,39th Ave SE & NE 204th Pl,47.776452,-122.180069,2b
629,4th Ave W & 213th Pl SW,47.805033,-122.238373,2b
630,4th Ave W & 216th St SW,47.802556,-122.238306,2b
635,4th Ave S & S Washington St,47.601332,-122.328914,1
638,4th Ave W & 219th Pl SW,47.799136,-122.238347,2b
639,4th St & Alder St,47.862852,-121.816404,2a
640,4th Ave S & S Jackson St,47.598829,-122.328871,1
641,4th Ave & Seneca St,47.607375,-122.333986,1
645,44th Ave W & 172nd St SW,47.842943,-122.292439,2b
646,44th Ave W & 174th Pl SW,47.840859,-122.292442,2b
647,44th Ave W & 179th St SW,47.836826,-122.292426,2b
648,44th Ave W & 184th St SW,47.832149,-122.292392,2b
649,44th Ave W & 188th St SW,47.828464,-122.292337,2b
650,44th Ave W & 192nd St SW,47.824576,-122.292341,2b
651,44th Ave W & 214th St SW,47.805057,-122.292260,2b
652,44th Ave W & Hawk Wy,47.802277,-122.292239,2b
653,44th Ave W & 220th St SW,47.799656,-122.292226,2b
654,44th Ave W & 226th St SW,47.793975,-122.292164,2b
655,44th Ave W & 228th St SW,47.792434,-122.292145,2b
656,44th Ave W & Maple Rd,47.834196,-122.292417,2b
657,44th Ave W & Cobblestone Dr,47.845690,-122.292456,2b
658,44th Ave W & 176th St SW,47.838912,-122.292432,2b
659,44th Ave W & 223rd St SW,47.797216,-122.292198,2b
660,44th Ave W & 224th St SW,47.795905,-122.292182,2b
661,44th Ave W & 229th Pl SW,47.790353,-122.292139,2b
662,44th Ave W & 20800 Block,47.810588,-122.292237,2b
665,47th Ave W & Chennault Beach Rd,47.896142,-122.297344,2b
666,47th Pl W & Harbour Pointe Blvd,47.904326,-122.296556,2b
667,47th Ave W & 109th St SW,47.898787,-122.295735,2b
675,48th Ave W & 233rd St SW,47.787465,-122.297547,2b
681,5th Ave S & Elm Wy,47.800945,-122.377479,2b
682,5th Ave S & Holly Dr,47.806775,-122.377473,2b
683,5th Ave S & Pine St,47.803446,-122.377472,2b
685,5th Ave & James St,47.603487,-122.328786,1
688,51st Ave NE & 119th Pl NE,48.102905,-122.162103,2a
689,51st Ave NE & 123rd Pl NE,48.106601,-122.162128,2a
690,51st Ave NE & 126th Pl NE,48.109825,-122.162162,2a
691,51st Ave NE & 128th Pl NE,48.111502,-122.162173,2a
692,51st Ave NE & 130th Pl NE,48.113967,-122.162216,2a
693,51st Ave NE & 134th Pl NE,48.117475,-122.162343,2a
694,51st Ave NE & 139th St NE,48.121243,-122.162486,2a
695,51st Ave NE & 139th Pl NE,48.122720,-122.162540,2a
696,51st Ave NE & 110th Pl NE,48.094701,-122.162206,2a
697,51st Ave NE & 117th Pl NE,48.101057,-122.162125,2a
698,51st Ave NE & 142nd Pl NE,48.124821,-122.162529,2a
699,51st Ave NE & 146th St NE,48.128481,-122.162250,2a
7,Marine Dr NE & 23rd Ave NE,48.054862,-122.200776,2a
701,52nd Ave W & 152nd St SW,47.860958,-122.303557,2b
703,52nd Ave W & 160th St SW,47.853908,-122.303560,2b
704,52nd Ave W & 164th St SW,47.850398,-122.303554,2b
705,52nd Ave W & 168th St SW,47.846859,-122.303499,2b
709,52nd Ave W & 208th St SW,47.810358,-122.303090,2b
710,52nd Ave W & 212th St SW,47.806766,-122.303094,2b
711,52nd Ave W & 216th St SW,47.802706,-122.303056,2b
714,52nd Ave W & 220th St SW,47.799481,-122.303042,2b
718,56th Ave W & 224th St SW,47.795785,-122.308415,2b
719,56th Ave W & 228th St SW,47.792165,-122.308405,2b
720,56th Ave W & 232nd St SW,47.788870,-122.308385,2b
725,56th Ave W & 222nd Pl SW,47.797142,-122.308425,2b
726,56th Ave W & 235th St SW,47.785895,-122.308349,2b
733,6th Ave S & Dayton St,47.809936,-122.374816,2b
739,66th Ave W & 222nd St SW,47.797836,-122.321890,2b
740,66th Ave W & 224th St SW,47.796076,-122.321888,2b
741,66th Ave W & 228th St SW,47.792533,-122.321884,2b
742,66th Ave W & 226th St SW,47.794305,-122.321890,2b
749,67th Ave NE & 72nd St NE,48.060529,-122.140741,2a
755,68th Ave W & 204th St SW,47.814257,-122.324715,2b
759,I-5 & NE 45th St Fwy Station,47.661693,-122.320898,1
760,72nd Ave NW & 265th St NW,48.238068,-122.330140,2a
761,72nd Ave NW & 268th St NW,48.240244,-122.330179,2a
762,72nd Ave NW & 261st St NW,48.233548,-122.330045,2a
764,76th Ave W & 216th St SW,47.803303,-122.335575,2b
766,76th Ave W & 198th St SW,47.819269,-122.335794,2b
767,76th Ave W & 204th St SW,47.814479,-122.335753,2b
768,76th Ave W & 212th St SW,47.807382,-122.335661,2b
769,76th Ave W & 219th St SW,47.800704,-122.335557,2b
770,76th Ave W & 230th St SW,47.790711,-122.335402,2b
771,76th Ave W & 236th St SW,47.785286,-122.335330,2b
772,76th Ave W & 244th St SW,47.778495,-122.335235,2b
773,76th Ave W & 200th St SW,47.817953,-122.335768,2b
774,76th Ave W & 206th St SW,47.812646,-122.335720,2b
775,76th Ave W & 234th St SW,47.787227,-122.335354,2b
778,8th St & Alder St,47.863164,-121.809822,2a
780,84th Ave W & 214th Pl SW,47.805385,-122.346466,2b
781,84th Ave W & 216th St SW,47.803466,-122.346435,2b
782,84th Ave W & 218th St SW,47.801660,-122.346406,2b
783,84th Ave W & 220th St SW,47.800040,-122.346396,2b
784,84th Ave W & 224th St SW,47.796210,-122.346341,2b
785,84th Ave W & 228th St SW,47.792610,-122.346289,2b
786,84th Ave W & 230th St SW,47.790719,-122.346258,2b
787,84th Ave W & 236th St SW,47.785398,-122.346156,2b
789,84th Ave W & Holly Ln,47.788369,-122.346214,2b
791,88th Ave NW & Hwy 532,48.240514,-122.351912,2a
794,9th Ave N & Hindley Ln,47.819996,-122.366944,2b
800,91st Ave SE & 16th Pl SE,47.981112,-122.108789,2a
801,91st Ave SE & 8th St SE,47.988277,-122.108684,2a
807,Airport Rd & Admiralty Wy,47.884797,-122.254442,2b
808,Airport Rd & E Gibson Rd,47.882153,-122.251011,2b
814,Alderwood Mall Pkwy & Beech Rd,47.828965,-122.268388,2b
815,Beardslee Blvd & Ross Rd,47.767769,-122.190939,1
817,Beverly Park Rd & 132nd St SW,47.879027,-122.286148,2b
818,Beverly Park Rd & 134th Pl SW,47.876622,-122.288799,2b
819,Beverly Park Rd & 49th Pl W,47.867891,-122.300253,2b
82,Lakeview Dr & Ballinger Playfield,47.790379,-122.328772,2b
820,Beverly Park Rd & 140th St SW,47.871462,-122.294592,2b
821,Beverly Park Rd & Hwy 525,47.882025,-122.280714,2b
823,Beverly Park Rd & 142nd Pl SW,47.869592,-122.296699,2b
824,Beverly Park Rd & 47th Pl W,47.874527,-122.291178,2b
825,Bickford Ave & 34th St,47.949074,-122.114153,2a
827,Broadway & 13th St,48.000496,-122.200835,2
83,52nd Ave W & 204th St SW,47.813972,-122.303115,2b
834,N Broadway St & E Gilman Ave,48.199575,-122.125098,2a
836,Broadway & Tower St,48.005345,-122.197765,2
837,Brook Blvd & 175th St SE,47.839728,-122.201662,2b
838,Brook Blvd & 180th St SE,47.835120,-122.204810,2b
839,Brook Blvd & Palomino Dr,47.836984,-122.204351,2b
840,S Stillaguamish Ave & 207th Pl NE,48.184600,-122.118023,2a
842,Cedar Wy & 236th St SW,47.785402,-122.290800,2b
844,Cedar Wy & 232nd St SW,47.788049,-122.291562,2b
846,Chennault Beach Rd & Harbour Reach Dr,47.895065,-122.300334,2b
85,67th Ave NE & 69th Pl NE,48.058213,-122.140752,2a
855,Cypress Wy & Larch Wy,47.808183,-122.260157,2b
856,Cypress Wy & 205th St SW,47.812016,-122.259257,2b
857,Ave D & 13th St,47.928100,-122.098793,2a
858,Ave D & Third St,47.914860,-122.098326,2a
859,Ave D & Fifth St,47.917804,-122.098137,2a
860,Ave D & 10th St,47.923653,-122.097819,2a
861,Snohomish P&R - Bay 2,47.931587,-122.100334,2a
877,Evergreen Wy & 79th Pl SE,47.926078,-122.223948,2
880,Firdale Ave & 240th Pl SW,47.781588,-122.366394,2b
881,Firdale Ave & 243rd Pl SW,47.778844,-122.363465,2b
886,Givens Ave & Fir St,48.248561,-121.603320,2a
887,Grade Rd & Hwy 92,48.030053,-122.071723,2a
888,Grade Rd & 22nd St NE,48.019027,-122.062860,2a
889,Grade Rd & 28th Pl NE,48.024112,-122.064015,2a
890,Granite Falls P&R,48.080459,-121.969116,2a
894,Harbour Pointe Blvd & 47th Pl W,47.904928,-122.296022,2b
895,Harbour Pointe Blvd SW & 52nd Pl W,47.886060,-122.304616,2b
896,Harbour Pointe Blvd & N Grove Dr,47.893859,-122.311202,2b
897,Harbour Pointe Blvd & Double Eagle Dr,47.887910,-122.310449,2b
898,Harbour Pointe Blvd & Harbour Heights Pkwy,47.895526,-122.308163,2b
899,Hubbard Rd & 210th St SW,47.808923,-122.242927,2b
9,Marine Dr NE & Meridian Ave N,48.038706,-122.232474,2a
904,I-5 & 116th St NE Flyer Stop,48.100706,-122.183777,2a
905,I-5 & 4th St Flyer Stop,48.052119,-122.183474,2a
906,Lakeview Dr & Ballinger Park,47.788229,-122.326883,2b
907,Lakeview Dr & Ballinger Playfield,47.790436,-122.328570,2b
911,Marine Dr & Florence Rd,48.218632,-122.334530,2a
912,Marine Dr & Norman Rd,48.213194,-122.335803,2a
913,Marine Dr & 226th St NW,48.202615,-122.337824,2a
914,Marine Dr & Hatt Slough,48.209985,-122.336563,2a
915,Marine Dr & Happy Hollow Rd,48.188477,-122.340178,2a
916,Marine Dr & 201st St NW,48.179087,-122.351829,2a
917,Marine Dr & Warm Beach Conf Ctr,48.184459,-122.346744,2a
926,Mountain Loop Hwy & Alvord St,48.251797,-121.601013,2a
927,Mountain Loop Hwy & Seemann St,48.254880,-121.601588,2a
929,Stanwood I P&R - Bay 2,48.238396,-122.243553,2a
930,N Olympic Ave & E 2nd St,48.193845,-122.126336,2a
934,Olympic View Dr & 170th Pl SW,47.844636,-122.319378,2b
940,Olympic View Dr & 172nd St SW,47.843082,-122.321639,2b
942,Puget Park Dr & 137th St SE,47.873787,-122.154148,2b
950,Shoultes Rd & 100th St NE,48.086278,-122.170955,2a
951,Shoultes Rd & 103rd Pl NE,48.088917,-122.166763,2a
953,Smokey Point Blvd & 177th Pl NE,48.157658,-122.182849,2a
954,Smokey Point Blvd & 152nd St NE,48.134509,-122.183103,2a
955,Smokey Point Blvd & 168th St NE,48.148955,-122.182867,2a
956,Smokey Point Blvd & 172nd St NE,48.152755,-122.182868,2a
958,Smokey Point Blvd & 183rd Pl NE,48.163158,-122.182842,2a
959,Smokey Point Blvd & 156th St NE,48.138371,-122.182983,2a
960,Smokey Point Blvd & 166th Pl NE,48.145725,-122.182885,2a
963,Hwy 525 & 80th St SW,47.925971,-122.300207,2b
964,Hwy 525 & 84th St SW,47.922712,-122.300095,2b
965,Hwy 525 & 92nd St SW,47.915345,-122.297516,2b
966,Hwy 525 & Beverly Park Rd,47.883296,-122.280325,2b
967,Hwy 525 & Clover Ln,47.933529,-122.306277,2b
968,Hwy 525 & Goat Trail Rd,47.939846,-122.305698,2b
969,Hwy 525 & Harbour Pointe Blvd SW,47.890359,-122.285170,2b
970,Hwy 525 & Lincoln Wy,47.873970,-122.276299,2b
972,Hwy 525 & 15th Pl,47.936620,-122.306030,2b
973,Hwy 525 & 76th St SW,47.928926,-122.301111,2b
974,Hwy 525 & Chennault Beach Rd,47.899450,-122.291460,2b
975,Hwy 525 & Harbour Pointe Blvd,47.905493,-122.293025,2b
977,Hwy 527 & 180th St SE,47.835008,-122.210900,2b
979,Hwy 527 & 186th Pl SE,47.828582,-122.208982,2b
980,Hwy 527 & Reder Wy,47.762749,-122.207432,2b
981,Hwy 527 & 189th Pl SE,47.826344,-122.208120,2b
982,Hwy 527 & 192nd St SE,47.824174,-122.207330,2b
983,Hwy 527 & 196th St SE,47.820538,-122.207356,2b
984,Hwy 527 & Maltby Rd,47.809925,-122.207469,2b
985,Hwy 527 & 214th St SE,47.804437,-122.208284,2b
986,Hwy 527 & 220th St SE,47.799009,-122.211612,2b
987,Hwy 527 & Mill Creek Rd,47.849830,-122.217547,2b
988,Hwy 527 & Seattle Hill Rd,47.844713,-122.215805,2b
989,Hwy 527 & 228th St SE,47.790689,-122.217152,2b
990,Hwy 527 & 201st Pl SE,47.814933,-122.207390,2b
991,Hwy 527 & 240th St SE,47.780599,-122.219633,2b
992,Hwy 527 & 234th St SE,47.783284,-122.220213,2b
995,Hwy 9 & Hwy 204,48.003465,-122.106314,2a
997,Hwy 99 & 60th Ave W,47.825146,-122.311535,2b
998,Hwy 99 & 40th Ave W,47.860093,-122.285613,2b
